[
  {
    "name": "SEGAWE",
    "latitude": "-8.0133964",
    "longitude": "111.8111127",
    "icon_url": "https://sipsn.menlhk.go.id/sipsn/assets/img/ylw-circle.png",
    "facility_type": "tps3r",
    "id": "11767",
    "address": "SEGAWE (PDU) DusunSuwaru, Desa Segawe, Kec. Pagerwojo, Kabupaten Tulungagung, Jawa Timur 66262 Kab. Tulungagung, Jawa Timur"
  },
  {
    "name": "SUMBER MANFAAT",
    "latitude": "-7.9751960",
    "longitude": "111.7930660",
    "icon_url": "https://sipsn.menlhk.go.id/sipsn/assets/img/ylw-circle.png",
    "facility_type": "tps3r",
    "id": "11761",
    "address": "SUMBER MANFAAT (TPS 3R / UPS) Jl Raya Mulyosari - Pagerwojo, Garon, Samar, Kec. Pagerwojo, Kabupaten Tulungagung, Jawa Timur 66262 Kab. Tulungagung, Jawa Timur"
  },
  {
    "name": "WRINGIN",
    "latitude": "-7.8114146",
    "longitude": "113.7722077",
    "icon_url": "https://sipsn.menlhk.go.id/sipsn/assets/img/ylw-circle.png",
    "facility_type": "tps3r",
    "id": "11509",
    "address": "WRINGIN (TPS 3R / UPS) Desa Wringin Kab. Bondowoso, Jawa Timur"
  },
  {
    "name": "TPS 3R Sambi",
    "latitude": "-7.9828365",
    "longitude": "112.0267712",
    "icon_url": "https://sipsn.menlhk.go.id/sipsn/assets/img/ylw-circle.png",
    "facility_type": "tps3r",
    "id": "11411",
    "address": "TPS 3R SAMBI (TPS 3R / UPS) Sambi, Ringinrejo Kab. Kediri, Jawa Timur"
  },
  {
    "name": "TPS 3R Bobang",
    "latitude": "-7.8390400",
    "longitude": "111.9734300",
    "icon_url": "https://sipsn.menlhk.go.id/sipsn/assets/img/ylw-circle.png",
    "facility_type": "tps3r",
    "id": "11410",
    "address": "TPS 3R BOBANG (TPS 3R / UPS) Kecamatan Semen Kab. Kediri, Jawa Timur"
  },
  {
    "name": "Bulukandang",
    "latitude": "-7.6966560",
    "longitude": "112.6883969",
    "icon_url": "https://sipsn.menlhk.go.id/sipsn/assets/img/ylw-circle.png",
    "facility_type": "tps3r",
    "id": "11388",
    "address": "BULUKANDANG (TPS 3R / UPS) Bulukandang - Prigen Kab. Pasuruan, Jawa Timur"
  },
  {
    "name": "TPS 3R KSM BERSIH MADAYA",
    "latitude": "-6.9480987",
    "longitude": "113.8723942",
    "icon_url": "https://sipsn.menlhk.go.id/sipsn/assets/img/ylw-circle.png",
    "facility_type": "tps3r",
    "id": "11373",
    "address": "TPS 3R KSM BERSIH MADAYA (TPS 3R / UPS) JL. Raya Manding Kab. Sumenep, Jawa Timur"
  },
  {
    "name": "TPS 3R SUMBER BAROKA",
    "latitude": "-7.0916857",
    "longitude": "113.8392458",
    "icon_url": "https://sipsn.menlhk.go.id/sipsn/assets/img/ylw-circle.png",
    "facility_type": "tps3r",
    "id": "11372",
    "address": "TPS 3R SUMBER BAROKA (TPS 3R / UPS) Jl. Raya Tj. No.25, Mara'an Kab. Sumenep, Jawa Timur"
  },
  {
    "name": "TPS 3R DESA BEJI",
    "latitude": "-6.2071100",
    "longitude": "106.7995600",
    "icon_url": "https://sipsn.menlhk.go.id/sipsn/assets/img/ylw-circle.png",
    "facility_type": "tps3r",
    "id": "11016",
    "address": "TPS 3R DESA BEJI (TPS 3R / UPS) - Kota Batu, Jawa Timur"
  },
  {
    "name": "TPS3R Banjar Sugihan",
    "latitude": "-7.2522039",
    "longitude": "112.6551599",
    "icon_url": "https://sipsn.menlhk.go.id/sipsn/assets/img/ylw-circle.png",
    "facility_type": "tps3r",
    "id": "10966",
    "address": "TPS3R BANJAR SUGIHAN (TPS 3R / UPS) Jl. Banjar Sugihan Kota Surabaya, Jawa Timur"
  },
  {
    "name": "PDU Karyo tomo",
    "latitude": "-8.1914960",
    "longitude": "111.0962420",
    "icon_url": "https://sipsn.menlhk.go.id/sipsn/assets/img/ylw-circle.png",
    "facility_type": "tps3r",
    "id": "10828",
    "address": "PDU KARYO TOMO (PDU) Kelurahan Pucangsewu Kecamatan Pacitan Kabupaten Pacitan Kab. Pacitan, Jawa Timur"
  },
  {
    "name": "UWUH NOWOSENO BULUHARJO",
    "latitude": "-7.6843948",
    "longitude": "111.2587605",
    "icon_url": "https://sipsn.menlhk.go.id/sipsn/assets/img/ylw-circle.png",
    "facility_type": "tps3r",
    "id": "10824",
    "address": "UWUH NOWOSENO BULUHARJO (TPS 3R / UPS) Desa Buluharjo RT 24 RW 04 Kab. Magetan, Jawa Timur"
  },
  {
    "name": "KSM MANUNGGAL JAYA",
    "latitude": "-7.6617702",
    "longitude": "111.2796769",
    "icon_url": "https://sipsn.menlhk.go.id/sipsn/assets/img/ylw-circle.png",
    "facility_type": "tps3r",
    "id": "10823",
    "address": "KSM MANUNGGAL JAYA (TPS 3R / UPS) Desa Sidorejo RT 14 RW 03 Kab. Magetan, Jawa Timur"
  },
  {
    "name": "TPS 3R KENDALREJO",
    "latitude": "-7.1548440",
    "longitude": "111.9334300",
    "icon_url": "https://sipsn.menlhk.go.id/sipsn/assets/img/ylw-circle.png",
    "facility_type": "tps3r",
    "id": "10707",
    "address": "TPS 3R KENDALREJO (TPS 3R / UPS) KENDALREJO Kab. Tuban, Jawa Timur"
  },
  {
    "name": "TPS 3R RAHAYU",
    "latitude": "-7.1043780",
    "longitude": "111.9699580",
    "icon_url": "https://sipsn.menlhk.go.id/sipsn/assets/img/ylw-circle.png",
    "facility_type": "tps3r",
    "id": "10706",
    "address": "TPS 3R RAHAYU (TPS 3R / UPS) Desa Rahayu Kec Soko Kab. Tuban, Jawa Timur"
  },
  {
    "name": "TPS3R BANGKIT LESTARI MAKMUR DESA PANGEAN",
    "latitude": "-7.0165688",
    "longitude": "112.2771485",
    "icon_url": "https://sipsn.menlhk.go.id/sipsn/assets/img/ylw-circle.png",
    "facility_type": "tps3r",
    "id": "10604",
    "address": "TPS3R BANGKIT LESTARI MAKMUR DESA PANGEAN (TPS 3R / UPS) RT 09/RW 03 Dusun Dempel, Ds.Pangean Kab. Lamongan, Jawa Timur"
  },
  {
    "name": "TPS3R GADIS PATAAN, DESA PATAAN",
    "latitude": "-7.2885951",
    "longitude": "112.2478204",
    "icon_url": "https://sipsn.menlhk.go.id/sipsn/assets/img/ylw-circle.png",
    "facility_type": "tps3r",
    "id": "10603",
    "address": "TPS3R GADIS PATAAN, DESA PATAAN (TPS 3R / UPS) Dsn. Pataan RT 003 RW 002, Ds. Pataan Kab. Lamongan, Jawa Timur"
  },
  {
    "name": "TPS3R PRABU MAS BLULUK",
    "latitude": "-7.3109789",
    "longitude": "112.1319491",
    "icon_url": "https://sipsn.menlhk.go.id/sipsn/assets/img/ylw-circle.png",
    "facility_type": "tps3r",
    "id": "10601",
    "address": "TPS3R PRABU MAS BLULUK (TPS 3R / UPS) Rt 01 rw 01 dusun bluluk, Ds. Bluluk Kab. Lamongan, Jawa Timur"
  },
  {
    "name": "dsn gayaman berseri",
    "latitude": "-7.4892863",
    "longitude": "112.4709128",
    "icon_url": "https://sipsn.menlhk.go.id/sipsn/assets/img/ylw-circle.png",
    "facility_type": "tps3r",
    "id": "10523",
    "address": "DSN GAYAMAN BERSERI (TPS 3R / UPS) Tambak Rejo 02/02 Kab. Mojokerto, Jawa Timur"
  },
  {
    "name": "TPS 3R Ponpes Al Islah Dlopo Karangrejo",
    "latitude": "-7.7933408",
    "longitude": "112.0386945",
    "icon_url": "https://sipsn.menlhk.go.id/sipsn/assets/img/ylw-circle.png",
    "facility_type": "tps3r",
    "id": "10388",
    "address": "TPS 3R PONPES AL ISLAH DLOPO KARANGREJO (TPS 3R / UPS) Desa Karangrejo Kec. Ngasem Kab. Kediri, Jawa Timur"
  },
  {
    "name": "TPS 3R Pondok Queen Al Falah Ploso",
    "latitude": "-7.9203659",
    "longitude": "111.9552300",
    "icon_url": "https://sipsn.menlhk.go.id/sipsn/assets/img/ylw-circle.png",
    "facility_type": "tps3r",
    "id": "10387",
    "address": "TPS 3R PONDOK QUEEN AL FALAH PLOSO (TPS 3R / UPS) Ds. Ploso Kec. Mojo Kab. Kediri, Jawa Timur"
  },
  {
    "name": "SARWO MATHUK TUNGGUR",
    "latitude": "-7.7754980",
    "longitude": "111.4235690",
    "icon_url": "https://sipsn.menlhk.go.id/sipsn/assets/img/ylw-circle.png",
    "facility_type": "tps3r",
    "id": "10213",
    "address": "SARWO MATHUK TUNGGUR (TPS 3R / UPS) Jl. Raya Lembeyan - Parang, Nawung, Tunggur, Kec. Lembeyan, Kabupaten Magetan, Jawa Timur 63372 Kab. Magetan, Jawa Timur"
  },
  {
    "name": "KERIK",
    "latitude": "-7.6658390",
    "longitude": "111.4719790",
    "icon_url": "https://sipsn.menlhk.go.id/sipsn/assets/img/ylw-circle.png",
    "facility_type": "tps3r",
    "id": "10212",
    "address": "KERIK (TPS 3R / UPS) Banaran, Kerik, Kec. Takeran, Kabupaten Magetan, Jawa Timur Kab. Magetan, Jawa Timur"
  },
  {
    "name": "MANUNGGAL JAYA",
    "latitude": "-7.6643300",
    "longitude": "111.2792120",
    "icon_url": "https://sipsn.menlhk.go.id/sipsn/assets/img/ylw-circle.png",
    "facility_type": "tps3r",
    "id": "10211",
    "address": "MANUNGGAL JAYA (TPS 3R / UPS) Sampung, Sidorejo, Kec. Sidorejo, Kabupaten Magetan, Jawa Timur Kab. Magetan, Jawa Timur"
  },
  {
    "name": "DAGUNG BERSERI GONGGANG",
    "latitude": "-7.7229150",
    "longitude": "111.2336730",
    "icon_url": "https://sipsn.menlhk.go.id/sipsn/assets/img/ylw-circle.png",
    "facility_type": "tps3r",
    "id": "10210",
    "address": "DAGUNG BERSERI GONGGANG (TPS 3R / UPS) Jl. Gonggang - Karangudi, Biung, Gonggang, Kec. Poncol, Kabupaten Magetan, Jawa Timur 63362 Kab. Magetan, Jawa Timur"
  },
  {
    "name": "NITI REJEKI NITIKAN",
    "latitude": "-7.6746650",
    "longitude": "111.2870260",
    "icon_url": "https://sipsn.menlhk.go.id/sipsn/assets/img/ylw-circle.png",
    "facility_type": "tps3r",
    "id": "10209",
    "address": "NITI REJEKI NITIKAN (TPS 3R / UPS) Sepuh, Nitikan, Kec. Plaosan, Kabupaten Magetan, Jawa Timur Kab. Magetan, Jawa Timur"
  },
  {
    "name": "ARUM LESTARI BOGOARUM",
    "latitude": "-7.6933420",
    "longitude": "111.2753400",
    "icon_url": "https://sipsn.menlhk.go.id/sipsn/assets/img/ylw-circle.png",
    "facility_type": "tps3r",
    "id": "10208",
    "address": "ARUM LESTARI BOGOARUM (TPS 3R / UPS) Karanglo, Bogoarum, Kec. Plaosan, Kabupaten Magetan, Jawa Timur 63361 Kab. Magetan, Jawa Timur"
  },
  {
    "name": "GOGATA BERSINAR",
    "latitude": "-7.7165700",
    "longitude": "111.4658040",
    "icon_url": "https://sipsn.menlhk.go.id/sipsn/assets/img/ylw-circle.png",
    "facility_type": "tps3r",
    "id": "10207",
    "address": "GOGATA BERSINAR (TPS 3R / UPS) Godangan, Goranggareng, Kec. Nguntoronadi, Kabupaten Magetan, Jawa Timur 63383 Kab. Magetan, Jawa Timur"
  },
  {
    "name": "BERSAMA KITA BISA BANGSRI",
    "latitude": "-7.6733140",
    "longitude": "111.3025440",
    "icon_url": "https://sipsn.menlhk.go.id/sipsn/assets/img/ylw-circle.png",
    "facility_type": "tps3r",
    "id": "10206",
    "address": "BERSAMA KITA BISA BANGSRI (TPS 3R / UPS) Selopanggung, Bangsri, Kec. Ngariboyo, Kabupaten Magetan, Jawa Timur 63351 Kab. Magetan, Jawa Timur"
  },
  {
    "name": "BINA SEJAHTERA",
    "latitude": "-7.6835220",
    "longitude": "111.3406220",
    "icon_url": "https://sipsn.menlhk.go.id/sipsn/assets/img/ylw-circle.png",
    "facility_type": "tps3r",
    "id": "10205",
    "address": "BINA SEJAHTERA (TPS 3R / UPS) Ngariboyo, Kec. Ngariboyo, Kabupaten Magetan, Jawa Timur Kab. Magetan, Jawa Timur"
  },
  {
    "name": "NIRMALA BALEASRI",
    "latitude": "-7.6818160",
    "longitude": "111.3281420",
    "icon_url": "https://sipsn.menlhk.go.id/sipsn/assets/img/ylw-circle.png",
    "facility_type": "tps3r",
    "id": "10204",
    "address": "NIRMALA BALEASRI (TPS 3R / UPS) Jalan Ki Ageng Bagus Suratman, Ngeleng, Baleasri, Kec. Ngariboyo, Kabupaten Magetan, Jawa Timur Kab. Magetan, Jawa Timur"
  },
  {
    "name": "PURWOSARI BERSERI",
    "latitude": "-7.6428990",
    "longitude": "111.3507990",
    "icon_url": "https://sipsn.menlhk.go.id/sipsn/assets/img/ylw-circle.png",
    "facility_type": "tps3r",
    "id": "10203",
    "address": "PURWOSARI BERSERI (TPS 3R / UPS) Janglong, Purwosari, Kec. Magetan, Kabupaten Magetan, Jawa Timur 63319 Kab. Magetan, Jawa Timur"
  },
  {
    "name": "CANDI ASRI CANDIREJO",
    "latitude": "-7.6567996",
    "longitude": "111.3150061",
    "icon_url": "https://sipsn.menlhk.go.id/sipsn/assets/img/ylw-circle.png",
    "facility_type": "tps3r",
    "id": "10201",
    "address": "CANDI ASRI CANDIREJO (TPS 3R / UPS) 88V8+72J, Candi Kidul, Candirejo, Kec. Magetan, Kabupaten Magetan, Jawa Timur 63319 Kab. Magetan, Jawa Timur"
  },
  {
    "name": "SAPU JAGAD RINGINAGUNG",
    "latitude": "-7.6653316",
    "longitude": "111.3157431",
    "icon_url": "https://sipsn.menlhk.go.id/sipsn/assets/img/ylw-circle.png",
    "facility_type": "tps3r",
    "id": "10200",
    "address": "SAPU JAGAD RINGINAGUNG (TPS 3R / UPS) Tulung, Ringinagung, Kec. Magetan, Kabupaten Magetan, Jawa Timur 63319 Kab. Magetan, Jawa Timur"
  },
  {
    "name": "PSM GADING MANUNGGAL KARTOHARJO",
    "latitude": "-7.5285141",
    "longitude": "111.4912049",
    "icon_url": "https://sipsn.menlhk.go.id/sipsn/assets/img/ylw-circle.png",
    "facility_type": "tps3r",
    "id": "10199",
    "address": "PSM GADING MANUNGGAL KARTOHARJO (TPS 3R / UPS) Dusun Pengkol, Jajar, Kec. Kartoharjo, Kabupaten Magetan, Jawa Timur 63395 Kab. Magetan, Jawa Timur"
  },
  {
    "name": "BERLIAN BULU",
    "latitude": "-7.6256447",
    "longitude": "111.3792150",
    "icon_url": "https://sipsn.menlhk.go.id/sipsn/assets/img/ylw-circle.png",
    "facility_type": "tps3r",
    "id": "10198",
    "address": "BERLIAN BULU (TPS 3R / UPS) Bulu Timur, Bulu, Kec. Sukomoro, Kabupaten Magetan, Jawa Timur Kab. Magetan, Jawa Timur"
  },
  {
    "name": "SARANGAN ASRI",
    "latitude": "-7.6713890",
    "longitude": "111.2329970",
    "icon_url": "https://sipsn.menlhk.go.id/sipsn/assets/img/ylw-circle.png",
    "facility_type": "tps3r",
    "id": "10197",
    "address": "SARANGAN ASRI (TPS 3R / UPS) Plaosan III, Plaosan, Kec. Plaosan, Kabupaten Magetan, Jawa Timur Kab. Magetan, Jawa Timur"
  },
  {
    "name": "TPS 3R MANGGALA WONOSIDI",
    "latitude": "-8.1364377",
    "longitude": "111.3249568",
    "icon_url": "https://sipsn.menlhk.go.id/sipsn/assets/img/ylw-circle.png",
    "facility_type": "tps3r",
    "id": "10191",
    "address": "TPS 3R MANGGALA WONOSIDI (TPS 3R / UPS) Jl. Tulakan - Wonokarto Km. 8 Dusun Papringan Kab. Pacitan, Jawa Timur"
  },
  {
    "name": "TPS 3R Wonorejo-Wates",
    "latitude": "-7.9022627",
    "longitude": "112.0983105",
    "icon_url": "https://sipsn.menlhk.go.id/sipsn/assets/img/ylw-circle.png",
    "facility_type": "tps3r",
    "id": "10182",
    "address": "TPS 3R WONOREJO-WATES (TPS 3R / UPS) Desa Wonorejo Kec. Wates Kab. Kediri, Jawa Timur"
  },
  {
    "name": "TPS 3R Darungan",
    "latitude": "-7.7766561",
    "longitude": "112.1579249",
    "icon_url": "https://sipsn.menlhk.go.id/sipsn/assets/img/ylw-circle.png",
    "facility_type": "tps3r",
    "id": "10181",
    "address": "TPS 3R DARUNGAN (TPS 3R / UPS) Desa Darungan Kab. Kediri, Jawa Timur"
  },
  {
    "name": "TPS 3R Jerukwangi",
    "latitude": "-7.7282553",
    "longitude": "112.2756583",
    "icon_url": "https://sipsn.menlhk.go.id/sipsn/assets/img/ylw-circle.png",
    "facility_type": "tps3r",
    "id": "10180",
    "address": "TPS 3R JERUKWANGI (TPS 3R / UPS) Ds. Jerukwangi Kec. Kandangan Kab. Kediri, Jawa Timur"
  },
  {
    "name": "TPS 3R Manyaran",
    "latitude": "-7.7819310",
    "longitude": "111.9671537",
    "icon_url": "https://sipsn.menlhk.go.id/sipsn/assets/img/ylw-circle.png",
    "facility_type": "tps3r",
    "id": "10179",
    "address": "TPS 3R MANYARAN (TPS 3R / UPS) Desa Manyaran Kec. Banyakan Kab. Kediri, Jawa Timur"
  },
  {
    "name": "TPS 3R Sonorejo",
    "latitude": "-7.7456149",
    "longitude": "111.9790773",
    "icon_url": "https://sipsn.menlhk.go.id/sipsn/assets/img/ylw-circle.png",
    "facility_type": "tps3r",
    "id": "10178",
    "address": "TPS 3R SONOREJO (TPS 3R / UPS) Desa Sonorejo Kec. Grogol Kab. Kediri, Jawa Timur"
  },
  {
    "name": "TPS3R PALOH",
    "latitude": "-6.8758419",
    "longitude": "112.4462824",
    "icon_url": "https://sipsn.menlhk.go.id/sipsn/assets/img/ylw-circle.png",
    "facility_type": "tps3r",
    "id": "10123",
    "address": "TPS3R PALOH (TPS 3R / UPS) DS. PALOH Kab. Lamongan, Jawa Timur"
  },
  {
    "name": "TPS3R PUCANGRO",
    "latitude": "-7.0428685",
    "longitude": "112.3546395",
    "icon_url": "https://sipsn.menlhk.go.id/sipsn/assets/img/ylw-circle.png",
    "facility_type": "tps3r",
    "id": "10122",
    "address": "TPS3R PUCANGRO (TPS 3R / UPS) DS. PUCANGRO KALITENGAH Kab. Lamongan, Jawa Timur"
  },
  {
    "name": "TPS3R GANGGANTINGAN",
    "latitude": "-7.3497650",
    "longitude": "112.1698476",
    "icon_url": "https://sipsn.menlhk.go.id/sipsn/assets/img/ylw-circle.png",
    "facility_type": "tps3r",
    "id": "10121",
    "address": "TPS3R GANGGANTINGAN (TPS 3R / UPS) DS. GANNGGANTINGAN Kab. Lamongan, Jawa Timur"
  },
  {
    "name": "TPS3R KRANJI",
    "latitude": "-6.8777364",
    "longitude": "112.3826762",
    "icon_url": "https://sipsn.menlhk.go.id/sipsn/assets/img/ylw-circle.png",
    "facility_type": "tps3r",
    "id": "10120",
    "address": "TPS3R KRANJI (TPS 3R / UPS) DS. KRANJI PACIRAN Kab. Lamongan, Jawa Timur"
  },
  {
    "name": "TPS3R KARANGGENENG",
    "latitude": "-6.9905480",
    "longitude": "112.3710314",
    "icon_url": "https://sipsn.menlhk.go.id/sipsn/assets/img/ylw-circle.png",
    "facility_type": "tps3r",
    "id": "10119",
    "address": "TPS3R KARANGGENENG (TPS 3R / UPS) DS. KARANGGENENG Kab. Lamongan, Jawa Timur"
  },
  {
    "name": "TPS3R DATINAWONG",
    "latitude": "-7.1098218",
    "longitude": "112.2234989",
    "icon_url": "https://sipsn.menlhk.go.id/sipsn/assets/img/ylw-circle.png",
    "facility_type": "tps3r",
    "id": "10118",
    "address": "TPS3R DATINAWONG (TPS 3R / UPS) DS. DATINAWONG BABAT Kab. Lamongan, Jawa Timur"
  },
  {
    "name": "TPS3R SUKODADI",
    "latitude": "-7.1354772",
    "longitude": "112.3470653",
    "icon_url": "https://sipsn.menlhk.go.id/sipsn/assets/img/ylw-circle.png",
    "facility_type": "tps3r",
    "id": "10117",
    "address": "TPS3R SUKODADI (TPS 3R / UPS) DS. SUKODADI Kab. Lamongan, Jawa Timur"
  },
  {
    "name": "TPS 3R Silir Ria",
    "latitude": "-7.8724278",
    "longitude": "112.0610507",
    "icon_url": "https://sipsn.menlhk.go.id/sipsn/assets/img/ylw-circle.png",
    "facility_type": "tps3r",
    "id": "10003",
    "address": "TPS 3R SILIR RIA (TPS 3R / UPS) Desa Silir Kecamatan Wates Kab. Kediri, Jawa Timur"
  },
  {
    "name": "TPS3R NGUDI BERKAH BANGGLE",
    "latitude": "-8.1050283",
    "longitude": "112.2175377",
    "icon_url": "https://sipsn.menlhk.go.id/sipsn/assets/img/ylw-circle.png",
    "facility_type": "tps3r",
    "id": "10002",
    "address": "TPS3R NGUDI BERKAH BANGGLE (TPS 3R / UPS) Desa Banggle Kecamatan Kanigoro Kab. Blitar, Jawa Timur"
  },
  {
    "name": "TPS3R KLEMUNAN ALAM LESTARI",
    "latitude": "-8.1135472",
    "longitude": "112.3367573",
    "icon_url": "https://sipsn.menlhk.go.id/sipsn/assets/img/ylw-circle.png",
    "facility_type": "tps3r",
    "id": "10001",
    "address": "TPS3R KLEMUNAN ALAM LESTARI (TPS 3R / UPS) Kelurahan Klemunan Kecamatan Wlingi Kab. Blitar, Jawa Timur"
  },
  {
    "name": "TPS3R SELOPURO INDAH BERSERI",
    "latitude": "-8.1561709",
    "longitude": "112.3069532",
    "icon_url": "https://sipsn.menlhk.go.id/sipsn/assets/img/ylw-circle.png",
    "facility_type": "tps3r",
    "id": "10000",
    "address": "TPS3R SELOPURO INDAH BERSERI (TPS 3R / UPS) Desa Selopuro Kecamatan Selopuro Kab. Blitar, Jawa Timur"
  },
  {
    "name": "TPS3R DESA JATITENGAH KECAMATAN SELOPURO",
    "latitude": "-8.1374178",
    "longitude": "112.2995021",
    "icon_url": "https://sipsn.menlhk.go.id/sipsn/assets/img/ylw-circle.png",
    "facility_type": "tps3r",
    "id": "9999",
    "address": "TPS3R DESA JATITENGAH KECAMATAN SELOPURO (TPS 3R / UPS) DESA JATITENGAH KECAMATAN SELOPURO Kab. Blitar, Jawa Timur"
  },
  {
    "name": "TPS3R KADEMANGAN INDAH BERSERI",
    "latitude": "-8.1452702",
    "longitude": "112.1400408",
    "icon_url": "https://sipsn.menlhk.go.id/sipsn/assets/img/ylw-circle.png",
    "facility_type": "tps3r",
    "id": "9998",
    "address": "TPS3R KADEMANGAN INDAH BERSERI (TPS 3R / UPS) Kelurahan Kademangan Kecamatan Kademangan Kab. Blitar, Jawa Timur"
  },
  {
    "name": "TPS3R MITRA ALAM GEMBONGAN",
    "latitude": "-7.9941778",
    "longitude": "112.0983105",
    "icon_url": "https://sipsn.menlhk.go.id/sipsn/assets/img/ylw-circle.png",
    "facility_type": "tps3r",
    "id": "9997",
    "address": "TPS3R MITRA ALAM GEMBONGAN (TPS 3R / UPS) Desa Gembongan Kecamatan Ponggok Kabupaten Blitar Kab. Blitar, Jawa Timur"
  },
  {
    "name": "TPS3R DAKARA WINA BERSERI",
    "latitude": "-8.0954627",
    "longitude": "112.1609056",
    "icon_url": "https://sipsn.menlhk.go.id/sipsn/assets/img/ylw-circle.png",
    "facility_type": "tps3r",
    "id": "9996",
    "address": "TPS3R DAKARA WINA BERSERI (TPS 3R / UPS) Desa Rejowinangun Kecamatan Kademangan Kab. Blitar, Jawa Timur"
  },
  {
    "name": "TPS3R SEMEN ASRI MAKMUR",
    "latitude": "-8.1196859",
    "longitude": "112.3188749",
    "icon_url": "https://sipsn.menlhk.go.id/sipsn/assets/img/ylw-circle.png",
    "facility_type": "tps3r",
    "id": "9993",
    "address": "TPS3R SEMEN ASRI MAKMUR (TPS 3R / UPS) Tegalrejo, Semen, Gandusari, Blitar Regency, East Java 66187 Kab. Blitar, Jawa Timur"
  },
  {
    "name": "TPS 3R WONOKETRO",
    "latitude": "-7.9323489",
    "longitude": "111.4759856",
    "icon_url": "https://sipsn.menlhk.go.id/sipsn/assets/img/ylw-circle.png",
    "facility_type": "tps3r",
    "id": "9973",
    "address": "TPS 3R WONOKETRO (TPS 3R / UPS) Desa Wonoketro Kab. Ponorogo, Jawa Timur"
  },
  {
    "name": "TPS 3R Nongkodono",
    "latitude": "-7.9017354",
    "longitude": "111.4071373",
    "icon_url": "https://sipsn.menlhk.go.id/sipsn/assets/img/ylw-circle.png",
    "facility_type": "tps3r",
    "id": "9972",
    "address": "TPS 3R NONGKODONO (TPS 3R / UPS) Desa Nongkodono Kecamatan Kauman Kab. Ponorogo, Jawa Timur"
  },
  {
    "name": "TPS3R SURODIKRAMAN",
    "latitude": "-7.8844920",
    "longitude": "111.4689030",
    "icon_url": "https://sipsn.menlhk.go.id/sipsn/assets/img/ylw-circle.png",
    "facility_type": "tps3r",
    "id": "9952",
    "address": "TPS3R SURODIKRAMAN (TPS 3R / UPS) Kabupaten Ponorogo Kab. Ponorogo, Jawa Timur"
  },
  {
    "name": "TPS3R TUNJUNG LESTARI",
    "latitude": "-7.0477060",
    "longitude": "112.7869310",
    "icon_url": "https://sipsn.menlhk.go.id/sipsn/assets/img/ylw-circle.png",
    "facility_type": "tps3r",
    "id": "9902",
    "address": "TPS3R TUNJUNG LESTARI (TPS 3R / UPS) Pegedangan Tunjung, Kec. Burneh, Kabupaten Bangkalan, Jawa Timur Kab. Bangkalan, Jawa Timur"
  },
  {
    "name": "TPS3R KEMUNING MARTAJASAH",
    "latitude": "-7.0416960",
    "longitude": "112.7206720",
    "icon_url": "https://sipsn.menlhk.go.id/sipsn/assets/img/ylw-circle.png",
    "facility_type": "tps3r",
    "id": "9901",
    "address": "TPS3R KEMUNING MARTAJASAH (TPS 3R / UPS) Sebelah Kanan penginapan sahara, Jl raya martajesah, Mlajah, Kec. Bangkalan, Jawa Timur 69119 Kab. Bangkalan, Jawa Timur"
  },
  {
    "name": "TPS3R ASRI JAYA PANGERANAN",
    "latitude": "-7.0311020",
    "longitude": "112.7490550",
    "icon_url": "https://sipsn.menlhk.go.id/sipsn/assets/img/ylw-circle.png",
    "facility_type": "tps3r",
    "id": "9900",
    "address": "TPS3R ASRI JAYA PANGERANAN (TPS 3R / UPS) JL. Raya Wisma Pangeranan Asri RT. 6 RW 9, RW 7 Kab. Bangkalan, Jawa Timur"
  },
  {
    "name": "TPS3R PEJAGAN BERSERI",
    "latitude": "-7.0195420",
    "longitude": "112.7533500",
    "icon_url": "https://sipsn.menlhk.go.id/sipsn/assets/img/ylw-circle.png",
    "facility_type": "tps3r",
    "id": "9899",
    "address": "TPS3R PEJAGAN BERSERI (TPS 3R / UPS) JL. Ki Lemah Dhuwur, Barat Tambak, Pejagan, Bangkalan Kab. Bangkalan, Jawa Timur"
  },
  {
    "name": "TPS3R Mlajah Berjaya",
    "latitude": "-7.0480630",
    "longitude": "112.7277740",
    "icon_url": "https://sipsn.menlhk.go.id/sipsn/assets/img/ylw-circle.png",
    "facility_type": "tps3r",
    "id": "9898",
    "address": "TPS3R MLAJAH BERJAYA (TPS 3R / UPS) Jl. RE Martadinata RW 05 Mlajah, Bangkalan Kab. Bangkalan, Jawa Timur"
  },
  {
    "name": "TPS3R RENGKES ONGGHU",
    "latitude": "-7.0361270",
    "longitude": "112.7387680",
    "icon_url": "https://sipsn.menlhk.go.id/sipsn/assets/img/ylw-circle.png",
    "facility_type": "tps3r",
    "id": "9897",
    "address": "TPS3R RENGKES ONGGHU (TPS 3R / UPS) Jl. Pesalakan No. 22 B RT 3 / RW 4 Kab. Bangkalan, Jawa Timur"
  },
  {
    "name": "TPS 3R OMAH SAMPAH",
    "latitude": "-7.0278276",
    "longitude": "112.0980865",
    "icon_url": "https://sipsn.menlhk.go.id/sipsn/assets/img/ylw-circle.png",
    "facility_type": "tps3r",
    "id": "9871",
    "address": "TPS 3R OMAH SAMPAH (TPS 3R / UPS) PLUMPANG Kab. Tuban, Jawa Timur"
  },
  {
    "name": "TPS 3R Ds. Wiyuh",
    "latitude": "-7.5638310",
    "longitude": "112.4768287",
    "icon_url": "https://sipsn.menlhk.go.id/sipsn/assets/img/ylw-circle.png",
    "facility_type": "tps3r",
    "id": "9456",
    "address": "TPS 3R DS. WIYUH (TPS 3R / UPS) Ds. Wiyuh Kab. Mojokerto, Jawa Timur"
  },
  {
    "name": "TPS 3R Ds. Randubango",
    "latitude": "-7.5026364",
    "longitude": "112.5557987",
    "icon_url": "https://sipsn.menlhk.go.id/sipsn/assets/img/ylw-circle.png",
    "facility_type": "tps3r",
    "id": "9455",
    "address": "TPS 3R DS. RANDUBANGO (TPS 3R / UPS) Ds. Randubango Kab. Mojokerto, Jawa Timur"
  },
  {
    "name": "TPS 3R Ds. Wringinrejo",
    "latitude": "-7.4951182",
    "longitude": "112.4127552",
    "icon_url": "https://sipsn.menlhk.go.id/sipsn/assets/img/ylw-circle.png",
    "facility_type": "tps3r",
    "id": "9454",
    "address": "TPS 3R DS. WRINGINREJO (TPS 3R / UPS) Ds. Wringinrejo Kab. Mojokerto, Jawa Timur"
  },
  {
    "name": "TPS 3R Ds. Kedungmaling",
    "latitude": "-7.5205903",
    "longitude": "112.4097750",
    "icon_url": "https://sipsn.menlhk.go.id/sipsn/assets/img/ylw-circle.png",
    "facility_type": "tps3r",
    "id": "9453",
    "address": "TPS 3R DS. KEDUNGMALING (TPS 3R / UPS) Ds. Kedungmaling Kab. Mojokerto, Jawa Timur"
  },
  {
    "name": "TPS 3R Ds. Kedungudi",
    "latitude": "-7.6258987",
    "longitude": "112.5930470",
    "icon_url": "https://sipsn.menlhk.go.id/sipsn/assets/img/ylw-circle.png",
    "facility_type": "tps3r",
    "id": "9452",
    "address": "TPS 3R DS. KEDUNGUDI (TPS 3R / UPS) Ds. Kedungudi Kab. Mojokerto, Jawa Timur"
  },
  {
    "name": "TPS 3R Ds. Kupang",
    "latitude": "-7.4068446",
    "longitude": "112.4321266",
    "icon_url": "https://sipsn.menlhk.go.id/sipsn/assets/img/ylw-circle.png",
    "facility_type": "tps3r",
    "id": "9451",
    "address": "TPS 3R DS. KUPANG (TPS 3R / UPS) Ds. Kupang Kab. Mojokerto, Jawa Timur"
  },
  {
    "name": "TPS 3R Ds. Trowulan",
    "latitude": "-7.5510271",
    "longitude": "112.3727818",
    "icon_url": "https://sipsn.menlhk.go.id/sipsn/assets/img/ylw-circle.png",
    "facility_type": "tps3r",
    "id": "9450",
    "address": "TPS 3R DS. TROWULAN (TPS 3R / UPS) Ds. Trowulan Kab. Mojokerto, Jawa Timur"
  },
  {
    "name": "TPS 3R Ds. Petak",
    "latitude": "-7.6485089",
    "longitude": "112.5377825",
    "icon_url": "https://sipsn.menlhk.go.id/sipsn/assets/img/ylw-circle.png",
    "facility_type": "tps3r",
    "id": "9449",
    "address": "TPS 3R DS. PETAK (TPS 3R / UPS) Ds. Petak Kab. Mojokerto, Jawa Timur"
  },
  {
    "name": "TPS 3R SAMPANG AGUNG",
    "latitude": "-7.5643669",
    "longitude": "112.5357035",
    "icon_url": "https://sipsn.menlhk.go.id/sipsn/assets/img/ylw-circle.png",
    "facility_type": "tps3r",
    "id": "9448",
    "address": "TPS 3R SAMPANG AGUNG (TPS 3R / UPS) Ds. Kutorejo Kab. Mojokerto, Jawa Timur"
  },
  {
    "name": "TPS 3R KSM SEDATI",
    "latitude": "-7.5480405",
    "longitude": "112.6119906",
    "icon_url": "https://sipsn.menlhk.go.id/sipsn/assets/img/ylw-circle.png",
    "facility_type": "tps3r",
    "id": "9447",
    "address": "TPS 3R KSM SEDATI (TPS 3R / UPS) Sedati RT. 02 RW. 02 Kab. Mojokerto, Jawa Timur"
  },
  {
    "name": "TPS 3R BELAHAN TENGAH BERKEMBANG",
    "latitude": "-7.5336119",
    "longitude": "112.2653084",
    "icon_url": "https://sipsn.menlhk.go.id/sipsn/assets/img/ylw-circle.png",
    "facility_type": "tps3r",
    "id": "9446",
    "address": "TPS 3R BELAHAN TENGAH BERKEMBANG (TPS 3R / UPS) Desa Belahan Tengah, Kecamatan Mojosari Kab. Mojokerto, Jawa Timur"
  },
  {
    "name": "TPS 3R MANDALA KUPANG SENTOSA",
    "latitude": "-7.4075578",
    "longitude": "112.4296550",
    "icon_url": "https://sipsn.menlhk.go.id/sipsn/assets/img/ylw-circle.png",
    "facility_type": "tps3r",
    "id": "9445",
    "address": "TPS 3R MANDALA KUPANG SENTOSA (TPS 3R / UPS) Jl. Raya Kupang, Waru Gn., Kupang Kab. Mojokerto, Jawa Timur"
  },
  {
    "name": "TPS 3R MLIRIP",
    "latitude": "-7.4457217",
    "longitude": "112.4448766",
    "icon_url": "https://sipsn.menlhk.go.id/sipsn/assets/img/ylw-circle.png",
    "facility_type": "tps3r",
    "id": "9444",
    "address": "TPS 3R MLIRIP (TPS 3R / UPS) Dsn. Clangap, Kalijaring, Mlirip RT. 05  RW. 05 Kab. Mojokerto, Jawa Timur"
  },
  {
    "name": "TPS 3R JRAMBE BERSERI",
    "latitude": "-7.5640302",
    "longitude": "112.4699891",
    "icon_url": "https://sipsn.menlhk.go.id/sipsn/assets/img/ylw-circle.png",
    "facility_type": "tps3r",
    "id": "9443",
    "address": "TPS 3R JRAMBE BERSERI (TPS 3R / UPS) Sambirejo, Randugenengan RT. 01 RW. 03 Kab. Mojokerto, Jawa Timur"
  },
  {
    "name": "TPS 3R PUNGGING (T)",
    "latitude": "-7.5188404",
    "longitude": "112.5788013",
    "icon_url": "https://sipsn.menlhk.go.id/sipsn/assets/img/ylw-circle.png",
    "facility_type": "tps3r",
    "id": "9440",
    "address": "TPS 3R PUNGGING (T) (TPS 3R / UPS) Jl. Pesarean Gg. 9, Dusun Patung Kab. Mojokerto, Jawa Timur"
  },
  {
    "name": "TPST SEDATI",
    "latitude": "-7.5511950",
    "longitude": "112.5914251",
    "icon_url": "https://sipsn.menlhk.go.id/sipsn/assets/img/ylw-circle.png",
    "facility_type": "tps3r",
    "id": "9436",
    "address": "TPST SEDATI (TPST (diluar TPA)) Purwojati, Kec. Ngoro Kab. Mojokerto, Jawa Timur"
  },
  {
    "name": "TPST desa Claket",
    "latitude": "-7.6772077",
    "longitude": "112.5648330",
    "icon_url": "https://sipsn.menlhk.go.id/sipsn/assets/img/ylw-circle.png",
    "facility_type": "tps3r",
    "id": "9312",
    "address": "TPST DESA CLAKET (TPST (diluar TPA)) Jl. Mawar No.3 - 01/04 - Dsn Sembong Kab. Mojokerto, Jawa Timur"
  },
  {
    "name": "TPST Desa selotapak",
    "latitude": "-7.6922211",
    "longitude": "112.5303680",
    "icon_url": "https://sipsn.menlhk.go.id/sipsn/assets/img/ylw-circle.png",
    "facility_type": "tps3r",
    "id": "9311",
    "address": "TPST DESA SELOTAPAK (TPST (diluar TPA)) Selotapak - kali jaten Kab. Mojokerto, Jawa Timur"
  },
  {
    "name": "TPST dsn Belor",
    "latitude": "-7.6424757",
    "longitude": "112.5528583",
    "icon_url": "https://sipsn.menlhk.go.id/sipsn/assets/img/ylw-circle.png",
    "facility_type": "tps3r",
    "id": "9310",
    "address": "TPST DSN BELOR (TPST (diluar TPA)) Belor Kembangbelor Kab. Mojokerto, Jawa Timur"
  },
  {
    "name": "TPST Kalikatir",
    "latitude": "-7.6404942",
    "longitude": "112.4736403",
    "icon_url": "https://sipsn.menlhk.go.id/sipsn/assets/img/ylw-circle.png",
    "facility_type": "tps3r",
    "id": "9309",
    "address": "TPST KALIKATIR (TPST (diluar TPA)) Kalikatir 09/03 Kab. Mojokerto, Jawa Timur"
  },
  {
    "name": "TPST kedungpeng desa gondang gang 1",
    "latitude": "-7.6209402",
    "longitude": "112.4910615",
    "icon_url": "https://sipsn.menlhk.go.id/sipsn/assets/img/ylw-circle.png",
    "facility_type": "tps3r",
    "id": "9308",
    "address": "TPST KEDUNGPENG DESA GONDANG GANG 1 (TPS 3R / UPS) Jl. Nangka II - 04/01 Kab. Mojokerto, Jawa Timur"
  },
  {
    "name": "TPST dsn jeruk desa pohjejer",
    "latitude": "-7.6101442",
    "longitude": "112.4726545",
    "icon_url": "https://sipsn.menlhk.go.id/sipsn/assets/img/ylw-circle.png",
    "facility_type": "tps3r",
    "id": "9307",
    "address": "TPST DSN JERUK DESA POHJEJER (TPST (diluar TPA)) Dsn Jeruk Ngayuman 01/04 Kab. Mojokerto, Jawa Timur"
  },
  {
    "name": "TPST Dsn Paras",
    "latitude": "-7.6450742",
    "longitude": "112.5538081",
    "icon_url": "https://sipsn.menlhk.go.id/sipsn/assets/img/ylw-circle.png",
    "facility_type": "tps3r",
    "id": "9306",
    "address": "TPST DSN PARAS (TPST (diluar TPA)) Jl. Tirtowening / jl kembang Pacet Kembangbelor Kab. Mojokerto, Jawa Timur"
  },
  {
    "name": "TPS 3R KAUMAN",
    "latitude": "-7.5248656",
    "longitude": "112.5586985",
    "icon_url": "https://sipsn.menlhk.go.id/sipsn/assets/img/ylw-circle.png",
    "facility_type": "tps3r",
    "id": "9305",
    "address": "TPS 3R KAUMAN (TPS 3R / UPS) Rt 2,Rw 2 Jl. Pahlawan, Meduran, Awang Awang, Kec. Mojosari Kab. Mojokerto, Jawa Timur"
  },
  {
    "name": "TPS 3R GAYAMAN BERSEMI",
    "latitude": "-7.4892863",
    "longitude": "112.4709128",
    "icon_url": "https://sipsn.menlhk.go.id/sipsn/assets/img/ylw-circle.png",
    "facility_type": "tps3r",
    "id": "9277",
    "address": "TPS 3R GAYAMAN BERSEMI (TPS 3R / UPS) Tambak Rejo 02/02 Kab. Mojokerto, Jawa Timur"
  },
  {
    "name": "KSM SUMBERDODOL ASRI",
    "latitude": "-7.6298040",
    "longitude": "111.2802529",
    "icon_url": "https://sipsn.menlhk.go.id/sipsn/assets/img/ylw-circle.png",
    "facility_type": "tps3r",
    "id": "9254",
    "address": "KSM SUMBERDODOL ASRI (TPS 3R / UPS) Blanten, Sumberdodol, Panekan, Kabupaten Magetan, Jawa Timur 63352 Kab. Magetan, Jawa Timur"
  },
  {
    "name": "KSM AMANAH JABUNG",
    "latitude": "-7.6051490",
    "longitude": "111.2766293",
    "icon_url": "https://sipsn.menlhk.go.id/sipsn/assets/img/ylw-circle.png",
    "facility_type": "tps3r",
    "id": "9252",
    "address": "KSM AMANAH JABUNG (TPS 3R / UPS) Jabung, Panekan, Kabupaten Magetan, Jawa Timur Kab. Magetan, Jawa Timur"
  },
  {
    "name": "BARON BERSERI",
    "latitude": "-7.6410740",
    "longitude": "111.3468068",
    "icon_url": "https://sipsn.menlhk.go.id/sipsn/assets/img/ylw-circle.png",
    "facility_type": "tps3r",
    "id": "9249",
    "address": "BARON BERSERI (TPS 3R / UPS) Magetan, Dusun Kawagean, Baron, Kec. Magetan, Kabupaten Magetan, Jawa Timur 63319 Kab. Magetan, Jawa Timur"
  },
  {
    "name": "TPS 3R Ngablak",
    "latitude": "-7.7596115",
    "longitude": "112.0029243",
    "icon_url": "https://sipsn.menlhk.go.id/sipsn/assets/img/ylw-circle.png",
    "facility_type": "tps3r",
    "id": "9237",
    "address": "TPS 3R NGABLAK (TPS 3R / UPS) Desa Ngablak Kecamatan Banyakan Kab. Kediri, Jawa Timur"
  },
  {
    "name": "TPS 3R Turus",
    "latitude": "-7.8325436",
    "longitude": "112.0908586",
    "icon_url": "https://sipsn.menlhk.go.id/sipsn/assets/img/ylw-circle.png",
    "facility_type": "tps3r",
    "id": "9235",
    "address": "TPS 3R TURUS (TPS 3R / UPS) Desa Turus Kecamatan Gurah Kab. Kediri, Jawa Timur"
  },
  {
    "name": "TPS 3R Maron",
    "latitude": "-7.7743498",
    "longitude": "111.9895104",
    "icon_url": "https://sipsn.menlhk.go.id/sipsn/assets/img/ylw-circle.png",
    "facility_type": "tps3r",
    "id": "9234",
    "address": "TPS 3R MARON (TPS 3R / UPS) Desa Maron Kecamatan Banyakan Kab. Kediri, Jawa Timur"
  },
  {
    "name": "TPS 3R Tiron",
    "latitude": "-7.7913526",
    "longitude": "111.9343636",
    "icon_url": "https://sipsn.menlhk.go.id/sipsn/assets/img/ylw-circle.png",
    "facility_type": "tps3r",
    "id": "9233",
    "address": "TPS 3R TIRON (TPS 3R / UPS) Desa Tiron Kecamatan Banyakan Kab. Kediri, Jawa Timur"
  },
  {
    "name": "TPS 3R Putih",
    "latitude": "-7.7805406",
    "longitude": "112.0163382",
    "icon_url": "https://sipsn.menlhk.go.id/sipsn/assets/img/ylw-circle.png",
    "facility_type": "tps3r",
    "id": "9232",
    "address": "TPS 3R PUTIH (TPS 3R / UPS) Desa Putih Kecamatan Gampangrejo Kab. Kediri, Jawa Timur"
  },
  {
    "name": "TPS 3R Karangrejo",
    "latitude": "-7.7933408",
    "longitude": "112.0386945",
    "icon_url": "https://sipsn.menlhk.go.id/sipsn/assets/img/ylw-circle.png",
    "facility_type": "tps3r",
    "id": "9231",
    "address": "TPS 3R KARANGREJO (TPS 3R / UPS) Desa Karangrejo Kecamatan Ngasem Kab. Kediri, Jawa Timur"
  },
  {
    "name": "WIDOROKANDANG",
    "latitude": "-7.6456064",
    "longitude": "111.2823981",
    "icon_url": "https://sipsn.menlhk.go.id/sipsn/assets/img/ylw-circle.png",
    "facility_type": "tps3r",
    "id": "9226",
    "address": "WIDOROKANDANG (TPS 3R / UPS) Jl. Ring Road 2, Kec. Sidorejo, Kabupaten Magetan, Jawa Timur 63352 Kab. Magetan, Jawa Timur"
  },
  {
    "name": "INTAN BERSINAR KLEDOKAN",
    "latitude": "-7.6307234",
    "longitude": "111.4280910",
    "icon_url": "https://sipsn.menlhk.go.id/sipsn/assets/img/ylw-circle.png",
    "facility_type": "tps3r",
    "id": "9225",
    "address": "INTAN BERSINAR KLEDOKAN (TPS 3R / UPS) Kledokan, Kec. Bendo, Kabupaten Magetan, Jawa Timur Kab. Magetan, Jawa Timur"
  },
  {
    "name": "MRANGGEN BERKAH",
    "latitude": "-7.5859997",
    "longitude": "111.4439866",
    "icon_url": "https://sipsn.menlhk.go.id/sipsn/assets/img/ylw-circle.png",
    "facility_type": "tps3r",
    "id": "9224",
    "address": "MRANGGEN BERKAH (TPS 3R / UPS) Mranggen, Kec. Maospati, Kabupaten Magetan, Jawa Timur 63392 Kab. Magetan, Jawa Timur"
  },
  {
    "name": "KRATON",
    "latitude": "-7.5845384",
    "longitude": "111.4536318",
    "icon_url": "https://sipsn.menlhk.go.id/sipsn/assets/img/ylw-circle.png",
    "facility_type": "tps3r",
    "id": "9223",
    "address": "KRATON (TPS 3R / UPS) Bulusari, Kraton, Kec. Maospati, Kabupaten Magetan, Jawa Timur Kab. Magetan, Jawa Timur"
  },
  {
    "name": "YOSO PAWITRO",
    "latitude": "-7.6267860",
    "longitude": "111.2944526",
    "icon_url": "https://sipsn.menlhk.go.id/sipsn/assets/img/ylw-circle.png",
    "facility_type": "tps3r",
    "id": "9222",
    "address": "YOSO PAWITRO (TPS 3R / UPS) Desa Tanjungsari Kab. Magetan, Jawa Timur"
  },
  {
    "name": "ARUM DALU",
    "latitude": "-7.6155997",
    "longitude": "111.2988046",
    "icon_url": "https://sipsn.menlhk.go.id/sipsn/assets/img/ylw-circle.png",
    "facility_type": "tps3r",
    "id": "9221",
    "address": "ARUM DALU (TPS 3R / UPS) Jl. Pandan 3, Panekan I, Panekan, Kabupaten Magetan, Jawa Timur 63352 Kab. Magetan, Jawa Timur"
  },
  {
    "name": "TEMBORO BERSERI",
    "latitude": "-7.5963574",
    "longitude": "111.3903447",
    "icon_url": "https://sipsn.menlhk.go.id/sipsn/assets/img/ylw-circle.png",
    "facility_type": "tps3r",
    "id": "9220",
    "address": "TEMBORO BERSERI (TPS 3R / UPS) Desa Temboro Kec. Karas Kab. Magetan, Jawa Timur"
  },
  {
    "name": "HARAPAN BARU",
    "latitude": "-7.7599456",
    "longitude": "111.3981999",
    "icon_url": "https://sipsn.menlhk.go.id/sipsn/assets/img/ylw-circle.png",
    "facility_type": "tps3r",
    "id": "9203",
    "address": "HARAPAN BARU (TPS 3R / UPS) RT 03 RW 01 LEMBEYAN KULON Kab. Magetan, Jawa Timur"
  },
  {
    "name": "GIRIPURNO",
    "latitude": "-7.6975160",
    "longitude": "111.3945692",
    "icon_url": "https://sipsn.menlhk.go.id/sipsn/assets/img/ylw-circle.png",
    "facility_type": "tps3r",
    "id": "9199",
    "address": "GIRIPURNO (TPS 3R / UPS) JL. MADURETNO NO 2 DESA GIRIPURNO KEC. KAWEDANAN Kab. Magetan, Jawa Timur"
  },
  {
    "name": "KSM ALAM SARI CEPOKO",
    "latitude": "-7.6278615",
    "longitude": "111.3063043",
    "icon_url": "https://sipsn.menlhk.go.id/sipsn/assets/img/ylw-circle.png",
    "facility_type": "tps3r",
    "id": "9198",
    "address": "KSM ALAM SARI CEPOKO (TPS 3R / UPS) Desa Cepoko Kec. Panekan Kab. Magetan, Jawa Timur"
  },
  {
    "name": "GONDO KENCONO BALEGONDO",
    "latitude": "-7.6727984",
    "longitude": "111.3292232",
    "icon_url": "https://sipsn.menlhk.go.id/sipsn/assets/img/ylw-circle.png",
    "facility_type": "tps3r",
    "id": "9197",
    "address": "GONDO KENCONO BALEGONDO (TPS 3R / UPS) Dusun Gandon, Balegondo, Kec. Ngariboyo, Kabupaten Magetan, Jawa Timur 63351 Kab. Magetan, Jawa Timur"
  },
  {
    "name": "KSM BERGERAK BERSAMA MASYARAKAT SIDOKERTO",
    "latitude": "-7.6349874",
    "longitude": "111.2846774",
    "icon_url": "https://sipsn.menlhk.go.id/sipsn/assets/img/ylw-circle.png",
    "facility_type": "tps3r",
    "id": "9196",
    "address": "KSM BERGERAK BERSAMA MASYARAKAT SIDOKERTO (TPS 3R / UPS) Desa Sidokerto Kec. Sidorejo Kab. Magetan, Jawa Timur"
  },
  {
    "name": "JOMBLANG BERSIH",
    "latitude": "-7.6719703",
    "longitude": "111.4859024",
    "icon_url": "https://sipsn.menlhk.go.id/sipsn/assets/img/ylw-circle.png",
    "facility_type": "tps3r",
    "id": "9195",
    "address": "JOMBLANG BERSIH (TPS 3R / UPS) Jomblang, Kec. Takeran, Kabupaten Magetan, Jawa Timur Kab. Magetan, Jawa Timur"
  },
  {
    "name": "TULUNG KAWEDANAN",
    "latitude": "-7.7129965",
    "longitude": "111.4324054",
    "icon_url": "https://sipsn.menlhk.go.id/sipsn/assets/img/ylw-circle.png",
    "facility_type": "tps3r",
    "id": "9194",
    "address": "TULUNG KAWEDANAN (TPS 3R / UPS) Dangan, Tulung, Kec. Kawedanan, Kabupaten Magetan, Jawa Timur Kab. Magetan, Jawa Timur"
  },
  {
    "name": "KSM KARYA ABADI SOCO",
    "latitude": "-7.6455042",
    "longitude": "111.4490346",
    "icon_url": "https://sipsn.menlhk.go.id/sipsn/assets/img/ylw-circle.png",
    "facility_type": "tps3r",
    "id": "9193",
    "address": "KSM KARYA ABADI SOCO (TPS 3R / UPS) DESA SOCO RT 14 RW 4 KEC. BENDO Kab. Magetan, Jawa Timur"
  },
  {
    "name": "DUYUNG",
    "latitude": "-7.7018094",
    "longitude": "111.4846312",
    "icon_url": "https://sipsn.menlhk.go.id/sipsn/assets/img/ylw-circle.png",
    "facility_type": "tps3r",
    "id": "9192",
    "address": "DUYUNG (TPS 3R / UPS) Duyung, Kec. Takeran, Kabupaten Magetan, Jawa Timur Kab. Magetan, Jawa Timur"
  },
  {
    "name": "MADIGONDO BERSERI",
    "latitude": "-7.6600321",
    "longitude": "111.4962149",
    "icon_url": "https://sipsn.menlhk.go.id/sipsn/assets/img/ylw-circle.png",
    "facility_type": "tps3r",
    "id": "9191",
    "address": "MADIGONDO BERSERI (TPS 3R / UPS) Gambiran, Madigondo, Kec. Takeran, Kabupaten Magetan, Jawa Timur 63383 Kab. Magetan, Jawa Timur"
  },
  {
    "name": "JERUK",
    "latitude": "-7.5155289",
    "longitude": "111.4714042",
    "icon_url": "https://sipsn.menlhk.go.id/sipsn/assets/img/ylw-circle.png",
    "facility_type": "tps3r",
    "id": "9190",
    "address": "JERUK (TPS 3R / UPS) Jeruk, Kec. Kartoharjo, Kabupaten Magetan, Jawa Timur Kab. Magetan, Jawa Timur"
  },
  {
    "name": "KSM SAMPAH BERKAH MILANGASRI",
    "latitude": "-7.6297786",
    "longitude": "111.3376581",
    "icon_url": "https://sipsn.menlhk.go.id/sipsn/assets/img/ylw-circle.png",
    "facility_type": "tps3r",
    "id": "9189",
    "address": "KSM SAMPAH BERKAH MILANGASRI (TPS 3R / UPS) Milangasri, Panekan, Kabupaten Magetan, Jawa Timur 63352 Kab. Magetan, Jawa Timur"
  },
  {
    "name": "KSM KARYA BAKTI NGILIRAN",
    "latitude": "-7.6130672",
    "longitude": "111.2721537",
    "icon_url": "https://sipsn.menlhk.go.id/sipsn/assets/img/ylw-circle.png",
    "facility_type": "tps3r",
    "id": "9188",
    "address": "KSM KARYA BAKTI NGILIRAN (TPS 3R / UPS) JL. LAWU DESA NGILIRAN NO 2 KEC. PANEKAN Kab. Magetan, Jawa Timur"
  },
  {
    "name": "KSM BUMI LESTARI MAOSPATI",
    "latitude": "-7.5859886",
    "longitude": "111.4318140",
    "icon_url": "https://sipsn.menlhk.go.id/sipsn/assets/img/ylw-circle.png",
    "facility_type": "tps3r",
    "id": "9187",
    "address": "KSM BUMI LESTARI MAOSPATI (TPS 3R / UPS) JL. PEPAYA RT 15 RW 05 DESA MALANG KEC. MAOSPATI Kab. Magetan, Jawa Timur"
  },
  {
    "name": "KSM RANDU GANTUNG RANDUGEDE",
    "latitude": "-7.6934935",
    "longitude": "111.2909837",
    "icon_url": "https://sipsn.menlhk.go.id/sipsn/assets/img/ylw-circle.png",
    "facility_type": "tps3r",
    "id": "9186",
    "address": "KSM RANDU GANTUNG RANDUGEDE (TPS 3R / UPS) RT 01 RW 01 DESA RANDUGEDE KEC. PLAOSAN KAB. MAGETAN Kab. Magetan, Jawa Timur"
  },
  {
    "name": "PONCO BANYAK",
    "latitude": "-7.5760150",
    "longitude": "111.4171990",
    "icon_url": "https://sipsn.menlhk.go.id/sipsn/assets/img/ylw-circle.png",
    "facility_type": "tps3r",
    "id": "9170",
    "address": "PONCO BANYAK (TPS 3R / UPS) Nglorok, Mantren, Kec. Karangrejo, Kabupaten Magetan, Jawa Timur 63395 Kab. Magetan, Jawa Timur"
  },
  {
    "name": "TPS3R LESTARI DESAKU KLAGENSRAMPAT",
    "latitude": "-7.0150592",
    "longitude": "112.2555251",
    "icon_url": "https://sipsn.menlhk.go.id/sipsn/assets/img/ylw-circle.png",
    "facility_type": "tps3r",
    "id": "9106",
    "address": "TPS3R LESTARI DESAKU KLAGENSRAMPAT (TPS 3R / UPS) DESA KLAGENSRAMPAT Kab. Lamongan, Jawa Timur"
  },
  {
    "name": "TPS3R GADING KENCANA SUKORAME",
    "latitude": "-7.3447474",
    "longitude": "112.1121734",
    "icon_url": "https://sipsn.menlhk.go.id/sipsn/assets/img/ylw-circle.png",
    "facility_type": "tps3r",
    "id": "9105",
    "address": "TPS3R GADING KENCANA SUKORAME (TPS 3R / UPS) DESA SUKORAME Kab. Lamongan, Jawa Timur"
  },
  {
    "name": "TPS3R DUMPI ASRI DUMPIAGUNG",
    "latitude": "-7.2451965",
    "longitude": "112.3712766",
    "icon_url": "https://sipsn.menlhk.go.id/sipsn/assets/img/ylw-circle.png",
    "facility_type": "tps3r",
    "id": "9103",
    "address": "TPS3R DUMPI ASRI DUMPIAGUNG (TPS 3R / UPS) DESA DUMPIAGUNG Kab. Lamongan, Jawa Timur"
  },
  {
    "name": "TPS3R BLIMBING",
    "latitude": "-6.8848348",
    "longitude": "112.3009923",
    "icon_url": "https://sipsn.menlhk.go.id/sipsn/assets/img/ylw-circle.png",
    "facility_type": "tps3r",
    "id": "9100",
    "address": "TPS3R BLIMBING (TPS 3R / UPS) DESA BLIMBING Kab. Lamongan, Jawa Timur"
  },
  {
    "name": "TPS3R NGIMBANG",
    "latitude": "-7.2876961",
    "longitude": "112.2161033",
    "icon_url": "https://sipsn.menlhk.go.id/sipsn/assets/img/ylw-circle.png",
    "facility_type": "tps3r",
    "id": "9099",
    "address": "TPS3R NGIMBANG (TPS 3R / UPS) DESA SENDANGREJO Kab. Lamongan, Jawa Timur"
  },
  {
    "name": "TPS 3R Purwoasri",
    "latitude": "-7.6422083",
    "longitude": "112.1042720",
    "icon_url": "https://sipsn.menlhk.go.id/sipsn/assets/img/ylw-circle.png",
    "facility_type": "tps3r",
    "id": "8905",
    "address": "TPS 3R PURWOASRI (TPS 3R / UPS) ds Purwoasri Kec. Purwoasri Kab. Kediri, Jawa Timur"
  },
  {
    "name": "TPS 3R PONPES TEBUIRENG",
    "latitude": "-7.6090392",
    "longitude": "112.2341197",
    "icon_url": "https://sipsn.menlhk.go.id/sipsn/assets/img/ylw-circle.png",
    "facility_type": "tps3r",
    "id": "8868",
    "address": "TPS 3R PONPES TEBUIRENG (TPS 3R / UPS) JL. Irian Jaya No.10 Cukir  Kecamatan Diwek Kabupaten Jombang Kab. Jombang, Jawa Timur"
  },
  {
    "name": "TPS 3R Barokah Amanah Sejahtera Bangsongan",
    "latitude": "-7.7411081",
    "longitude": "112.0625411",
    "icon_url": "https://sipsn.menlhk.go.id/sipsn/assets/img/ylw-circle.png",
    "facility_type": "tps3r",
    "id": "8830",
    "address": "TPS 3R BAROKAH AMANAH SEJAHTERA BANGSONGAN (TPS 3R / UPS) Desa Bangsongan Kab. Kediri, Jawa Timur"
  },
  {
    "name": "TPS 3R Kali Buntung Asri",
    "latitude": "-7.7564836",
    "longitude": "112.0372041",
    "icon_url": "https://sipsn.menlhk.go.id/sipsn/assets/img/ylw-circle.png",
    "facility_type": "tps3r",
    "id": "8829",
    "address": "TPS 3R KALI BUNTUNG ASRI (TPS 3R / UPS) Desa Turus Kab. Kediri, Jawa Timur"
  },
  {
    "name": "TPS 3R Joyoboyo",
    "latitude": "-7.7737098",
    "longitude": "112.0802970",
    "icon_url": "https://sipsn.menlhk.go.id/sipsn/assets/img/ylw-circle.png",
    "facility_type": "tps3r",
    "id": "8828",
    "address": "TPS 3R JOYOBOYO (TPS 3R / UPS) Desa Menang Kab. Kediri, Jawa Timur"
  },
  {
    "name": "TPS3R Gadingkulon",
    "latitude": "-7.9303952",
    "longitude": "112.5601223",
    "icon_url": "https://sipsn.menlhk.go.id/sipsn/assets/img/ylw-circle.png",
    "facility_type": "tps3r",
    "id": "8811",
    "address": "TPS3R GADINGKULON (TPS 3R / UPS) Jalan Jambu Kab. Malang, Jawa Timur"
  },
  {
    "name": "TPS 3R Gema Pasa",
    "latitude": "-7.8275009",
    "longitude": "111.9731155",
    "icon_url": "https://sipsn.menlhk.go.id/sipsn/assets/img/ylw-circle.png",
    "facility_type": "tps3r",
    "id": "8800",
    "address": "TPS 3R GEMA PASA (TPS 3R / UPS) Desa Semen Kec. Semen Kab. Kediri, Jawa Timur"
  },
  {
    "name": "TPS3R Gedangsewu Sejahtera",
    "latitude": "-7.7879179",
    "longitude": "112.1847509",
    "icon_url": "https://sipsn.menlhk.go.id/sipsn/assets/img/ylw-circle.png",
    "facility_type": "tps3r",
    "id": "8799",
    "address": "TPS3R GEDANGSEWU SEJAHTERA (TPS 3R / UPS) Desa Gedangsewu Kab. Kediri, Jawa Timur"
  },
  {
    "name": "TPS3R Pelem Jaya Makmur",
    "latitude": "-7.7695012",
    "longitude": "112.1684987",
    "icon_url": "https://sipsn.menlhk.go.id/sipsn/assets/img/ylw-circle.png",
    "facility_type": "tps3r",
    "id": "8798",
    "address": "TPS3R PELEM JAYA MAKMUR (TPS 3R / UPS) Desa Pelem Kecamatan Pare Kab. Kediri, Jawa Timur"
  },
  {
    "name": "TPS 3R GADINGREJO MAKAM",
    "latitude": "-7.6313020",
    "longitude": "112.9005810",
    "icon_url": "https://sipsn.menlhk.go.id/sipsn/assets/img/ylw-circle.png",
    "facility_type": "tps3r",
    "id": "8790",
    "address": "TPS 3R GADINGREJO MAKAM (TPS 3R / UPS) GADINGREJO Kota Pasuruan, Jawa Timur"
  },
  {
    "name": "TPS3R Jongbiru",
    "latitude": "-7.7883468",
    "longitude": "112.0133574",
    "icon_url": "https://sipsn.menlhk.go.id/sipsn/assets/img/ylw-circle.png",
    "facility_type": "tps3r",
    "id": "8788",
    "address": "TPS3R JONGBIRU (TPS 3R / UPS) Desa Jongbiru Kab. Kediri, Jawa Timur"
  },
  {
    "name": "TPS 3R Sidomulyo Berseri",
    "latitude": "-7.8208567",
    "longitude": "112.1877315",
    "icon_url": "https://sipsn.menlhk.go.id/sipsn/assets/img/ylw-circle.png",
    "facility_type": "tps3r",
    "id": "8626",
    "address": "TPS 3R SIDOMULYO BERSERI (TPS 3R / UPS) Desa Sidomulyo Kab. Kediri, Jawa Timur"
  },
  {
    "name": "TPS 3R BANJARJO MAS",
    "latitude": "-7.3174629",
    "longitude": "111.7614661",
    "icon_url": "https://sipsn.menlhk.go.id/sipsn/assets/img/ylw-circle.png",
    "facility_type": "tps3r",
    "id": "8582",
    "address": "TPS 3R BANJARJO MAS (TPS 3R / UPS) BANJARJO Kab. Bojonegoro, Jawa Timur"
  },
  {
    "name": "BERSIH LESTARI",
    "latitude": "-7.6653432",
    "longitude": "111.3157733",
    "icon_url": "https://sipsn.menlhk.go.id/sipsn/assets/img/ylw-circle.png",
    "facility_type": "tps3r",
    "id": "8578",
    "address": "BERSIH LESTARI (TPS 3R / UPS) Tulung, Ringinagung, Kec. Magetan, Kabupaten Magetan, Jawa Timur 63319 Kab. Magetan, Jawa Timur"
  },
  {
    "name": "GUYUB RUKUN",
    "latitude": "-7.6525348",
    "longitude": "111.3332196",
    "icon_url": "https://sipsn.menlhk.go.id/sipsn/assets/img/ylw-circle.png",
    "facility_type": "tps3r",
    "id": "8577",
    "address": "GUYUB RUKUN (TPS 3R / UPS) Magetan, Tambran, Kec. Magetan, Kabupaten Magetan, Jawa Timur 63318 Kab. Magetan, Jawa Timur"
  },
  {
    "name": "KEBONAGUNG",
    "latitude": "-7.6525375",
    "longitude": "111.3332277",
    "icon_url": "https://sipsn.menlhk.go.id/sipsn/assets/img/ylw-circle.png",
    "facility_type": "tps3r",
    "id": "8576",
    "address": "KEBONAGUNG (TPS 3R / UPS) Magetan, Tambran, Kec. Magetan, Kabupaten Magetan, Jawa Timur 63318 Kab. Magetan, Jawa Timur"
  },
  {
    "name": "NGUDI BERKAH",
    "latitude": "-7.6448961",
    "longitude": "111.3304399",
    "icon_url": "https://sipsn.menlhk.go.id/sipsn/assets/img/ylw-circle.png",
    "facility_type": "tps3r",
    "id": "8574",
    "address": "NGUDI BERKAH (TPS 3R / UPS) Jl. Ps. Sayur, Sukowinangun, Kec. Magetan, Kabupaten Magetan, Jawa Timur 63319 Kab. Magetan, Jawa Timur"
  },
  {
    "name": "SUKOWINANGUN",
    "latitude": "-7.6448974",
    "longitude": "111.3304426",
    "icon_url": "https://sipsn.menlhk.go.id/sipsn/assets/img/ylw-circle.png",
    "facility_type": "tps3r",
    "id": "8573",
    "address": "SUKOWINANGUN (TPS 3R / UPS) Jl. Ps. Sayur, Sukowinangun, Kec. Magetan, Kabupaten Magetan, Jawa Timur 63319 Kab. Magetan, Jawa Timur"
  },
  {
    "name": "BULUKERTO",
    "latitude": "-7.6611345",
    "longitude": "111.3403951",
    "icon_url": "https://sipsn.menlhk.go.id/sipsn/assets/img/ylw-circle.png",
    "facility_type": "tps3r",
    "id": "8572",
    "address": "BULUKERTO (TPS 3R / UPS) Dusun Carat, Bulukerto, Kec. Magetan, Kabupaten Magetan, Jawa Timur Kab. Magetan, Jawa Timur"
  },
  {
    "name": "LOH JINAWI (TPS3R)",
    "latitude": "-7.6552480",
    "longitude": "111.3437866",
    "icon_url": "https://sipsn.menlhk.go.id/sipsn/assets/img/ylw-circle.png",
    "facility_type": "tps3r",
    "id": "8571",
    "address": "LOH JINAWI (TPS3R) (TPS 3R / UPS) Mangkujayan, Kec. Magetan, Kabupaten Magetan, Jawa Timur Kab. Magetan, Jawa Timur"
  },
  {
    "name": "SELOSARI",
    "latitude": "-7.6520063",
    "longitude": "111.3121000",
    "icon_url": "https://sipsn.menlhk.go.id/sipsn/assets/img/ylw-circle.png",
    "facility_type": "tps3r",
    "id": "8569",
    "address": "SELOSARI (TPS 3R / UPS) Selosari, Kec. Magetan, Kabupaten Magetan, Jawa Timur 63313 Kab. Magetan, Jawa Timur"
  },
  {
    "name": "MAGETAN BERSIH MANDIRI",
    "latitude": "-7.6591219",
    "longitude": "111.3286639",
    "icon_url": "https://sipsn.menlhk.go.id/sipsn/assets/img/ylw-circle.png",
    "facility_type": "tps3r",
    "id": "8568",
    "address": "MAGETAN BERSIH MANDIRI (TPS 3R / UPS) Dusun Magetan, Magetan, Kec. Magetan, Kabupaten Magetan, Jawa Timur Kab. Magetan, Jawa Timur"
  },
  {
    "name": "TPS 3R Berkah Lestari Desa Jogoroto",
    "latitude": "-7.5980300",
    "longitude": "112.2674992",
    "icon_url": "https://sipsn.menlhk.go.id/sipsn/assets/img/ylw-circle.png",
    "facility_type": "tps3r",
    "id": "8531",
    "address": "TPS 3R BERKAH LESTARI DESA JOGOROTO (TPS 3R / UPS) JL. Jogoroto - Bulurejo Kab. Jombang, Jawa Timur"
  },
  {
    "name": "TPS 3R TANJUNG REJO",
    "latitude": "-7.0065660",
    "longitude": "111.7742430",
    "icon_url": "https://sipsn.menlhk.go.id/sipsn/assets/img/ylw-circle.png",
    "facility_type": "tps3r",
    "id": "8445",
    "address": "TPS 3R TANJUNG REJO (TPS 3R / UPS) Desa Tanjungrejo Kecamatan SInggahan Kab. Tuban, Jawa Timur"
  },
  {
    "name": "TPS 3R SUMURJALAK",
    "latitude": "-7.0362300",
    "longitude": "112.0861150",
    "icon_url": "https://sipsn.menlhk.go.id/sipsn/assets/img/ylw-circle.png",
    "facility_type": "tps3r",
    "id": "8444",
    "address": "TPS 3R SUMURJALAK (TPS 3R / UPS) DESA SUMURJALAK KECAMATAN PLUMPANG Kab. Tuban, Jawa Timur"
  },
  {
    "name": "TPS 3R LERAN WETAN",
    "latitude": "-6.9308420",
    "longitude": "112.1529170",
    "icon_url": "https://sipsn.menlhk.go.id/sipsn/assets/img/ylw-circle.png",
    "facility_type": "tps3r",
    "id": "8443",
    "address": "TPS 3R LERAN WETAN (TPS 3R / UPS) DESA LERAN WETAN KECAMATAN PALANG Kab. Tuban, Jawa Timur"
  },
  {
    "name": "TPS 3R MAJAPAHIT BANGKIT",
    "latitude": "-7.5510271",
    "longitude": "112.3727818",
    "icon_url": "https://sipsn.menlhk.go.id/sipsn/assets/img/ylw-circle.png",
    "facility_type": "tps3r",
    "id": "8392",
    "address": "TPS 3R MAJAPAHIT BANGKIT (TPS 3R / UPS) Trowulan Kab. Mojokerto, Jawa Timur"
  },
  {
    "name": "TPS 3R KSM TRAWAS BERSERI BERDIKARI",
    "latitude": "-7.6625842",
    "longitude": "112.5875533",
    "icon_url": "https://sipsn.menlhk.go.id/sipsn/assets/img/ylw-circle.png",
    "facility_type": "tps3r",
    "id": "8388",
    "address": "TPS 3R KSM TRAWAS BERSERI BERDIKARI (TPS 3R / UPS) Rt.02 , Rw.01Dusun kemloko, Kali Jaten, Selotapak, Kec. Trawas Puntodewo Kemloko Trawas Kab. Mojokerto, Jawa Timur"
  },
  {
    "name": "Sawentar Cipta Manfaat",
    "latitude": "-8.1033140",
    "longitude": "112.2348960",
    "icon_url": "https://sipsn.menlhk.go.id/sipsn/assets/img/ylw-circle.png",
    "facility_type": "tps3r",
    "id": "8311",
    "address": "SAWENTAR CIPTA MANFAAT (TPS 3R / UPS) RT 02 RW 08 Centong Sawentar, Kanigoro Kab. Blitar, Jawa Timur"
  },
  {
    "name": "TPS 3R Pasar Gresik",
    "latitude": "-7.1550291",
    "longitude": "112.5721881",
    "icon_url": "https://sipsn.menlhk.go.id/sipsn/assets/img/ylw-circle.png",
    "facility_type": "tps3r",
    "id": "8240",
    "address": "TPS 3R PASAR GRESIK (TPS 3R / UPS) Jl. Gubernur Suryo Kab. Gresik, Jawa Timur"
  },
  {
    "name": "TPS3R SUKOMAKMUR DESA SUKOSONGO",
    "latitude": "-7.1601132",
    "longitude": "112.3248357",
    "icon_url": "https://sipsn.menlhk.go.id/sipsn/assets/img/ylw-circle.png",
    "facility_type": "tps3r",
    "id": "8057",
    "address": "TPS3R SUKOMAKMUR DESA SUKOSONGO (TPS 3R / UPS) DESA SUKOSONGO, KEC. KEMBANGBAHU, KAB. LAMONGAN Kab. Lamongan, Jawa Timur"
  },
  {
    "name": "TPS3R JAYA MADYA KEDUNG MEGARIH",
    "latitude": "-7.1749241",
    "longitude": "112.3307965",
    "icon_url": "https://sipsn.menlhk.go.id/sipsn/assets/img/ylw-circle.png",
    "facility_type": "tps3r",
    "id": "8056",
    "address": "TPS3R JAYA MADYA KEDUNG MEGARIH (TPS 3R / UPS) DESA KEDUNG MEGARIH, KEC. KEMBANGBAHU KAB. LAMONGAN Kab. Lamongan, Jawa Timur"
  },
  {
    "name": "KONCER KIDUL",
    "latitude": "-7.9394299",
    "longitude": "113.8257538",
    "icon_url": "https://sipsn.menlhk.go.id/sipsn/assets/img/ylw-circle.png",
    "facility_type": "tps3r",
    "id": "7969",
    "address": "KONCER KIDUL (TPS 3R / UPS) KONCER KIDUL Kab. Bondowoso, Jawa Timur"
  },
  {
    "name": "TPS 3R Wonorejo",
    "latitude": "-7.8603920",
    "longitude": "112.0014339",
    "icon_url": "https://sipsn.menlhk.go.id/sipsn/assets/img/ylw-circle.png",
    "facility_type": "tps3r",
    "id": "7959",
    "address": "TPS 3R WONOREJO (TPS 3R / UPS) Desa Wonorejo Kec. Ngadiluwih Kab. Kediri, Jawa Timur"
  },
  {
    "name": "TPS 3R Resik Mandiri Indah Bersemi Titik",
    "latitude": "-7.8337962",
    "longitude": "111.9746059",
    "icon_url": "https://sipsn.menlhk.go.id/sipsn/assets/img/ylw-circle.png",
    "facility_type": "tps3r",
    "id": "7929",
    "address": "TPS 3R RESIK MANDIRI INDAH BERSEMI TITIK (TPS 3R / UPS) Desa Titik Kec. Semen Kab. Kediri, Jawa Timur"
  },
  {
    "name": "TPS 3R Badas Bersinar Terang",
    "latitude": "-7.7028323",
    "longitude": "112.2056153",
    "icon_url": "https://sipsn.menlhk.go.id/sipsn/assets/img/ylw-circle.png",
    "facility_type": "tps3r",
    "id": "7927",
    "address": "TPS 3R BADAS BERSINAR TERANG (TPS 3R / UPS) Desa Badas Kab Kediri Kab. Kediri, Jawa Timur"
  },
  {
    "name": "TPS 3R Pangarengan",
    "latitude": "-7.1962914",
    "longitude": "113.1638097",
    "icon_url": "https://sipsn.menlhk.go.id/sipsn/assets/img/ylw-circle.png",
    "facility_type": "tps3r",
    "id": "7922",
    "address": "TPS 3R PANGARENGAN (TPS 3R / UPS) Jalan Raya Pangarengan Kab. Sampang, Jawa Timur"
  },
  {
    "name": "TPS 3R Joyo Santoso",
    "latitude": "-7.6634867",
    "longitude": "112.6466823",
    "icon_url": "https://sipsn.menlhk.go.id/sipsn/assets/img/ylw-circle.png",
    "facility_type": "tps3r",
    "id": "7919",
    "address": "TPS 3R JOYO SANTOSO (TPS 3R / UPS) Desa Sekarjoho Kab. Pasuruan, Jawa Timur"
  },
  {
    "name": "TPS 3R Abi Martopuro",
    "latitude": "-7.7687193",
    "longitude": "112.7599036",
    "icon_url": "https://sipsn.menlhk.go.id/sipsn/assets/img/ylw-circle.png",
    "facility_type": "tps3r",
    "id": "7918",
    "address": "TPS 3R ABI MARTOPURO (TPS 3R / UPS) Desa Martopuro Kab. Pasuruan, Jawa Timur"
  },
  {
    "name": "TPS 3R Kebyar Asri",
    "latitude": "-7.7386274",
    "longitude": "112.7539449",
    "icon_url": "https://sipsn.menlhk.go.id/sipsn/assets/img/ylw-circle.png",
    "facility_type": "tps3r",
    "id": "7917",
    "address": "TPS 3R KEBYAR ASRI (TPS 3R / UPS) Desa Sukodermo Kab. Pasuruan, Jawa Timur"
  },
  {
    "name": "Karangjati",
    "latitude": "-7.6706579",
    "longitude": "112.7003150",
    "icon_url": "https://sipsn.menlhk.go.id/sipsn/assets/img/ylw-circle.png",
    "facility_type": "tps3r",
    "id": "7916",
    "address": "KARANGJATI (TPS 3R / UPS) Kelurahan Karangjati Kab. Pasuruan, Jawa Timur"
  },
  {
    "name": "TPS 3R Nuansa Indah",
    "latitude": "-7.6966560",
    "longitude": "112.6883969",
    "icon_url": "https://sipsn.menlhk.go.id/sipsn/assets/img/ylw-circle.png",
    "facility_type": "tps3r",
    "id": "7915",
    "address": "TPS 3R NUANSA INDAH (TPS 3R / UPS) Desa Bulukandang Kab. Pasuruan, Jawa Timur"
  },
  {
    "name": "TPS 3R Karya Indah",
    "latitude": "-7.8825118",
    "longitude": "112.0863874",
    "icon_url": "https://sipsn.menlhk.go.id/sipsn/assets/img/ylw-circle.png",
    "facility_type": "tps3r",
    "id": "7911",
    "address": "TPS 3R KARYA INDAH (TPS 3R / UPS) Desa Sumberagung Kecamatan Wates Kab. Kediri, Jawa Timur"
  },
  {
    "name": "TPS 3R Tales Berkarya",
    "latitude": "-7.9297540",
    "longitude": "111.9867695",
    "icon_url": "https://sipsn.menlhk.go.id/sipsn/assets/img/ylw-circle.png",
    "facility_type": "tps3r",
    "id": "7910",
    "address": "TPS 3R TALES BERKARYA (TPS 3R / UPS) Desa Tales Kecamatan Ngadiluwih Kab. Kediri, Jawa Timur"
  },
  {
    "name": "TPS3R SUGIO BERSINAR",
    "latitude": "-7.1616258",
    "longitude": "112.2950314",
    "icon_url": "https://sipsn.menlhk.go.id/sipsn/assets/img/ylw-circle.png",
    "facility_type": "tps3r",
    "id": "7904",
    "address": "TPS3R SUGIO BERSINAR (TPS 3R / UPS) DESA SUGIO Kab. Lamongan, Jawa Timur"
  },
  {
    "name": "TPST SAMTAKU",
    "latitude": "-7.1240523",
    "longitude": "112.4332539",
    "icon_url": "https://sipsn.menlhk.go.id/sipsn/assets/img/ylw-circle.png",
    "facility_type": "tps3r",
    "id": "7892",
    "address": "TPST SAMTAKU (TPST (diluar TPA)) KELURAHAN BANJARMENDALAN Kab. Lamongan, Jawa Timur"
  },
  {
    "name": "TPS3R MITRA ADIPURA SUKOMULYO",
    "latitude": "-7.1259703",
    "longitude": "112.4023244",
    "icon_url": "https://sipsn.menlhk.go.id/sipsn/assets/img/ylw-circle.png",
    "facility_type": "tps3r",
    "id": "7882",
    "address": "TPS3R MITRA ADIPURA SUKOMULYO (TPS 3R / UPS) KELURAHAN SUKOMULYO Kab. Lamongan, Jawa Timur"
  },
  {
    "name": "TPS3R Kamsri",
    "latitude": "-8.2830556",
    "longitude": "112.4305556",
    "icon_url": "https://sipsn.menlhk.go.id/sipsn/assets/img/ylw-circle.png",
    "facility_type": "tps3r",
    "id": "7876",
    "address": "TPS3R KAMSRI (TPS 3R / UPS) Desa Donomulyo Kab. Malang, Jawa Timur"
  },
  {
    "name": "TPS3R Barokah Sukoanyar",
    "latitude": "-8.1037080",
    "longitude": "112.7142050",
    "icon_url": "https://sipsn.menlhk.go.id/sipsn/assets/img/ylw-circle.png",
    "facility_type": "tps3r",
    "id": "7715",
    "address": "TPS3R BAROKAH SUKOANYAR (TPS 3R / UPS) Desa Sukoanyar Kab. Malang, Jawa Timur"
  },
  {
    "name": "TPS3R Jatisari Mandiri",
    "latitude": "-8.0657380",
    "longitude": "112.5871380",
    "icon_url": "https://sipsn.menlhk.go.id/sipsn/assets/img/ylw-circle.png",
    "facility_type": "tps3r",
    "id": "7714",
    "address": "TPS3R JATISARI MANDIRI (TPS 3R / UPS) Desa Jatisari Mandiri Kab. Malang, Jawa Timur"
  },
  {
    "name": "TPS3R Jedong Beriman",
    "latitude": "-7.9902860",
    "longitude": "112.5868620",
    "icon_url": "https://sipsn.menlhk.go.id/sipsn/assets/img/ylw-circle.png",
    "facility_type": "tps3r",
    "id": "7694",
    "address": "TPS3R JEDONG BERIMAN (TPS 3R / UPS) Desa Jedong Kab. Malang, Jawa Timur"
  },
  {
    "name": "TPS3R Wadung Jaya",
    "latitude": "-8.0395720",
    "longitude": "112.5920970",
    "icon_url": "https://sipsn.menlhk.go.id/sipsn/assets/img/ylw-circle.png",
    "facility_type": "tps3r",
    "id": "7693",
    "address": "TPS3R WADUNG JAYA (TPS 3R / UPS) Desa Wadung Kab. Malang, Jawa Timur"
  },
  {
    "name": "TPS3R Langgeng Jaya",
    "latitude": "-8.0545120",
    "longitude": "112.6237830",
    "icon_url": "https://sipsn.menlhk.go.id/sipsn/assets/img/ylw-circle.png",
    "facility_type": "tps3r",
    "id": "7692",
    "address": "TPS3R LANGGENG JAYA (TPS 3R / UPS) Desa Kendalpayak Kab. Malang, Jawa Timur"
  },
  {
    "name": "TPS3R Sekar Melati",
    "latitude": "-7.9730480",
    "longitude": "112.6833470",
    "icon_url": "https://sipsn.menlhk.go.id/sipsn/assets/img/ylw-circle.png",
    "facility_type": "tps3r",
    "id": "7691",
    "address": "TPS3R SEKAR MELATI (TPS 3R / UPS) Desa Pakisjajar Kab. Malang, Jawa Timur"
  },
  {
    "name": "TPS 3R Blimbing Makmur",
    "latitude": "-7.6367340",
    "longitude": "112.2300130",
    "icon_url": "https://sipsn.menlhk.go.id/sipsn/assets/img/ylw-circle.png",
    "facility_type": "tps3r",
    "id": "7671",
    "address": "TPS 3R BLIMBING MAKMUR (TPS 3R / UPS) desa blimbing kecamatan gudo Kab. Jombang, Jawa Timur"
  },
  {
    "name": "TPS3R Maju Sejahtera",
    "latitude": "-7.9391050",
    "longitude": "112.7531520",
    "icon_url": "https://sipsn.menlhk.go.id/sipsn/assets/img/ylw-circle.png",
    "facility_type": "tps3r",
    "id": "7616",
    "address": "TPS3R MAJU SEJAHTERA (TPS 3R / UPS) Desa Kemantren Kecamatan Jabung Kab. Malang, Jawa Timur"
  },
  {
    "name": "TPS3R Perum Malang Anggun Sejahtera",
    "latitude": "-7.8236790",
    "longitude": "112.7303530",
    "icon_url": "https://sipsn.menlhk.go.id/sipsn/assets/img/ylw-circle.png",
    "facility_type": "tps3r",
    "id": "7615",
    "address": "TPS3R PERUM MALANG ANGGUN SEJAHTERA (TPS 3R / UPS) Desa Sumberporong Kecamatan Lawang Kab. Malang, Jawa Timur"
  },
  {
    "name": "TPS3R Waringin Berseri",
    "latitude": "-8.1521760",
    "longitude": "112.6940760",
    "icon_url": "https://sipsn.menlhk.go.id/sipsn/assets/img/ylw-circle.png",
    "facility_type": "tps3r",
    "id": "7614",
    "address": "TPS3R WARINGIN BERSERI (TPS 3R / UPS) Kecamatan Turen Desa Kedok Wetan Kab. Malang, Jawa Timur"
  },
  {
    "name": "TPS3R Klompah Berseri",
    "latitude": "-8.2062270",
    "longitude": "112.6870780",
    "icon_url": "https://sipsn.menlhk.go.id/sipsn/assets/img/ylw-circle.png",
    "facility_type": "tps3r",
    "id": "7613",
    "address": "TPS3R KLOMPAH BERSERI (TPS 3R / UPS) Kecamatan Turen Desa Kedok Kab. Malang, Jawa Timur"
  },
  {
    "name": "TPS3R Perum Mondoroko Raya Mandiri",
    "latitude": "-7.9000000",
    "longitude": "112.6500000",
    "icon_url": "https://sipsn.menlhk.go.id/sipsn/assets/img/ylw-circle.png",
    "facility_type": "tps3r",
    "id": "7612",
    "address": "TPS3R PERUM MONDOROKO RAYA MANDIRI (TPS 3R / UPS) Desa Watugede Kecamatan Singosari Kab. Malang, Jawa Timur"
  },
  {
    "name": "TPS3R Tirtomoyo",
    "latitude": "-7.9361500",
    "longitude": "112.6780700",
    "icon_url": "https://sipsn.menlhk.go.id/sipsn/assets/img/ylw-circle.png",
    "facility_type": "tps3r",
    "id": "7611",
    "address": "TPS3R TIRTOMOYO (TPS 3R / UPS) Desa Tirtomoyo Kecamatan Pakis Kab. Malang, Jawa Timur"
  },
  {
    "name": "TPS3R Saptorenggo",
    "latitude": "-7.9510430",
    "longitude": "112.6827660",
    "icon_url": "https://sipsn.menlhk.go.id/sipsn/assets/img/ylw-circle.png",
    "facility_type": "tps3r",
    "id": "7610",
    "address": "TPS3R SAPTORENGGO (TPS 3R / UPS) Desa Saptorenggo Kecamatan Pakis Kab. Malang, Jawa Timur"
  },
  {
    "name": "TPS3R Perum Graha Permata",
    "latitude": "-7.9564330",
    "longitude": "112.7197840",
    "icon_url": "https://sipsn.menlhk.go.id/sipsn/assets/img/ylw-circle.png",
    "facility_type": "tps3r",
    "id": "7609",
    "address": "TPS3R PERUM GRAHA PERMATA (TPS 3R / UPS) Desa Pakisjajar Kecamatan Pakis Kab. Malang, Jawa Timur"
  },
  {
    "name": "TPS3R Nusa Indah",
    "latitude": "-7.9657750",
    "longitude": "112.6939770",
    "icon_url": "https://sipsn.menlhk.go.id/sipsn/assets/img/ylw-circle.png",
    "facility_type": "tps3r",
    "id": "7608",
    "address": "TPS3R NUSA INDAH (TPS 3R / UPS) Desa Ampeldento Kecamatan Pakis Kab. Malang, Jawa Timur"
  },
  {
    "name": "TPS3R Ki Ageng Sengguruh",
    "latitude": "-8.1808180",
    "longitude": "112.5518350",
    "icon_url": "https://sipsn.menlhk.go.id/sipsn/assets/img/ylw-circle.png",
    "facility_type": "tps3r",
    "id": "7607",
    "address": "TPS3R KI AGENG SENGGURUH (TPS 3R / UPS) Desa Sengguruh kecamatan Kepanjen Kab. Malang, Jawa Timur"
  },
  {
    "name": "TPS3R YUBHADA (YUDHA BHAKTI HUSADA)",
    "latitude": "-7.8849750",
    "longitude": "112.6036940",
    "icon_url": "https://sipsn.menlhk.go.id/sipsn/assets/img/ylw-circle.png",
    "facility_type": "tps3r",
    "id": "7606",
    "address": "TPS3R YUBHADA (YUDHA BHAKTI HUSADA) (TPS 3R / UPS) Batalyon Kesehatan 2/2 Kostrad Kab. Malang, Jawa Timur"
  },
  {
    "name": "TPS3R Karangwidoro",
    "latitude": "-7.9525540",
    "longitude": "112.5731190",
    "icon_url": "https://sipsn.menlhk.go.id/sipsn/assets/img/ylw-circle.png",
    "facility_type": "tps3r",
    "id": "7605",
    "address": "TPS3R KARANGWIDORO (TPS 3R / UPS) Desa Karangwidoro Kecamatan Dau Kab. Malang, Jawa Timur"
  },
  {
    "name": "KARANGREJO BERSATU",
    "latitude": "-7.5615044",
    "longitude": "111.4229662",
    "icon_url": "https://sipsn.menlhk.go.id/sipsn/assets/img/ylw-circle.png",
    "facility_type": "tps3r",
    "id": "7537",
    "address": "KARANGREJO BERSATU (TPS 3R / UPS) Jl. Imam Bonjol, Prampelan, Karangrejo, Kec. Karangrejo, Kabupaten Magetan, Jawa Timur 63395 Kab. Magetan, Jawa Timur"
  },
  {
    "name": "PINASTI MULYA",
    "latitude": "-7.6803633",
    "longitude": "111.4729899",
    "icon_url": "https://sipsn.menlhk.go.id/sipsn/assets/img/ylw-circle.png",
    "facility_type": "tps3r",
    "id": "7536",
    "address": "PINASTI MULYA (TPS 3R / UPS) Kunti, Takeran, Kec. Takeran, Kabupaten Magetan, Jawa Timur 63383 Kab. Magetan, Jawa Timur"
  },
  {
    "name": "PARANG ASRI",
    "latitude": "-7.7510886",
    "longitude": "111.3344426",
    "icon_url": "https://sipsn.menlhk.go.id/sipsn/assets/img/ylw-circle.png",
    "facility_type": "tps3r",
    "id": "7535",
    "address": "PARANG ASRI (TPS 3R / UPS) Ngepeh, Parang, Kec. Parang, Kabupaten Magetan, Jawa Timur Kab. Magetan, Jawa Timur"
  },
  {
    "name": "SUMBER BERSERI",
    "latitude": "-7.6748449",
    "longitude": "111.3195429",
    "icon_url": "https://sipsn.menlhk.go.id/sipsn/assets/img/ylw-circle.png",
    "facility_type": "tps3r",
    "id": "7534",
    "address": "SUMBER BERSERI (TPS 3R / UPS) Gentar, Sumberdukun, Kec. Ngariboyo, Kabupaten Magetan, Jawa Timur 63351 Kab. Magetan, Jawa Timur"
  },
  {
    "name": "PODO SENENG",
    "latitude": "-7.5908729",
    "longitude": "111.4309647",
    "icon_url": "https://sipsn.menlhk.go.id/sipsn/assets/img/ylw-circle.png",
    "facility_type": "tps3r",
    "id": "7533",
    "address": "PODO SENENG (TPS 3R / UPS) Kleco, Maospati, Kec. Maospati, Kabupaten Magetan, Jawa Timur 63392 Kab. Magetan, Jawa Timur"
  },
  {
    "name": "BERKAH BERSERI",
    "latitude": "-7.6964594",
    "longitude": "111.4121847",
    "icon_url": "https://sipsn.menlhk.go.id/sipsn/assets/img/ylw-circle.png",
    "facility_type": "tps3r",
    "id": "7532",
    "address": "BERKAH BERSERI (TPS 3R / UPS) Kawedanan, Kec. Kawedanan, Kabupaten Magetan, Jawa Timur 63382 Kab. Magetan, Jawa Timur"
  },
  {
    "name": "UWUH WIGUNA",
    "latitude": "-7.6403331",
    "longitude": "111.3188655",
    "icon_url": "https://sipsn.menlhk.go.id/sipsn/assets/img/ylw-circle.png",
    "facility_type": "tps3r",
    "id": "7530",
    "address": "UWUH WIGUNA (TPS 3R / UPS) Desa Kebaran Kelurahan Tawanganom Kab. Magetan, Jawa Timur"
  },
  {
    "name": "Pusat Daur Ulang",
    "latitude": "-6.9220620",
    "longitude": "112.0737360",
    "icon_url": "https://sipsn.menlhk.go.id/sipsn/assets/img/ylw-circle.png",
    "facility_type": "tps3r",
    "id": "7524",
    "address": "PUSAT DAUR ULANG (PDU) Jalan Kebersihan Kelurahan Gedongombo Kab. Tuban, Jawa Timur"
  },
  {
    "name": "TPS 3R Teratai Kelurahan Bugih",
    "latitude": "-7.1479460",
    "longitude": "113.4752270",
    "icon_url": "https://sipsn.menlhk.go.id/sipsn/assets/img/ylw-circle.png",
    "facility_type": "tps3r",
    "id": "7488",
    "address": "TPS 3R TERATAI KELURAHAN BUGIH (TPS 3R / UPS) Jl. Pintu Gerbang Kelurahan Bugih Kab. Pamekasan, Jawa Timur"
  },
  {
    "name": "TPS 3R Berseri Kelurahan Gladak Anyar",
    "latitude": "-7.1461440",
    "longitude": "113.4806500",
    "icon_url": "https://sipsn.menlhk.go.id/sipsn/assets/img/ylw-circle.png",
    "facility_type": "tps3r",
    "id": "7487",
    "address": "TPS 3R BERSERI KELURAHAN GLADAK ANYAR (TPS 3R / UPS) Kelurahan Gladak Anyar Kab. Pamekasan, Jawa Timur"
  },
  {
    "name": "TPS3R Kalipang Guyub Resik",
    "latitude": "-8.1653430",
    "longitude": "112.2130190",
    "icon_url": "https://sipsn.menlhk.go.id/sipsn/assets/img/ylw-circle.png",
    "facility_type": "tps3r",
    "id": "7447",
    "address": "TPS3R KALIPANG GUYUB RESIK (TPS 3R / UPS) Lingkungan Bendil Kelurahan Kalipang Kecamatan Sutojayan Kab. Blitar, Jawa Timur"
  },
  {
    "name": "TPS 3R LESTARI ALAMKU",
    "latitude": "-7.5248656",
    "longitude": "112.5586985",
    "icon_url": "https://sipsn.menlhk.go.id/sipsn/assets/img/ylw-circle.png",
    "facility_type": "tps3r",
    "id": "7315",
    "address": "TPS 3R LESTARI ALAMKU (TPS 3R / UPS) Jl. Raya Mojosari - Pacet  RT. 001 RW.001 Kab. Mojokerto, Jawa Timur"
  },
  {
    "name": "TPS 3R PURWO ASRI",
    "latitude": "-7.5539430",
    "longitude": "112.5945046",
    "icon_url": "https://sipsn.menlhk.go.id/sipsn/assets/img/ylw-circle.png",
    "facility_type": "tps3r",
    "id": "7314",
    "address": "TPS 3R PURWO ASRI (TPS 3R / UPS) Dsn. Timbulrejo Jolotundo RT. 003 RW. 013 Kab. Mojokerto, Jawa Timur"
  },
  {
    "name": "TPS 3R SOOKO BERSERIH (T)",
    "latitude": "-7.4959900",
    "longitude": "112.4320770",
    "icon_url": "https://sipsn.menlhk.go.id/sipsn/assets/img/ylw-circle.png",
    "facility_type": "tps3r",
    "id": "7311",
    "address": "TPS 3R SOOKO BERSERIH (T) (TPS 3R / UPS) Dsn. Mengelo Selatan RT. 002 RW. 011 Kab. Mojokerto, Jawa Timur"
  },
  {
    "name": "TPS 3R KARYA SEJAHTERAH",
    "latitude": "-7.5169030",
    "longitude": "112.4206350",
    "icon_url": "https://sipsn.menlhk.go.id/sipsn/assets/img/ylw-circle.png",
    "facility_type": "tps3r",
    "id": "7310",
    "address": "TPS 3R KARYA SEJAHTERAH (TPS 3R / UPS) Jl. Bhayangkara RT.003 RW.001 Kab. Mojokerto, Jawa Timur"
  },
  {
    "name": "TPS 3R MAJU BERSAMA (T)",
    "latitude": "-6.2071100",
    "longitude": "106.7995600",
    "icon_url": "https://sipsn.menlhk.go.id/sipsn/assets/img/ylw-circle.png",
    "facility_type": "tps3r",
    "id": "7307",
    "address": "TPS 3R MAJU BERSAMA (T) (TPS 3R / UPS) Jl. Gajahmada RT. 005 RW.003 Kab. Mojokerto, Jawa Timur"
  },
  {
    "name": "TPS3R BETEK",
    "latitude": "-7.5578920",
    "longitude": "112.3429040",
    "icon_url": "https://sipsn.menlhk.go.id/sipsn/assets/img/ylw-circle.png",
    "facility_type": "tps3r",
    "id": "7062",
    "address": "TPS3R BETEK (TPS 3R / UPS) Jl. Raya Sumobito, Betek, Mojoagung Kab. Jombang, Jawa Timur"
  },
  {
    "name": "TPS3R Baratan",
    "latitude": "-8.1393522",
    "longitude": "113.7325464",
    "icon_url": "https://sipsn.menlhk.go.id/sipsn/assets/img/ylw-circle.png",
    "facility_type": "tps3r",
    "id": "7001",
    "address": "TPS3R BARATAN (TPS 3R / UPS) Jl. Bondowoso - Jember, Baratan Wetan, Baratan, Kec. Patrang, Kabupaten Jember, Jawa Timur 68112 Kab. Jember, Jawa Timur"
  },
  {
    "name": "TPS3R Ngudi Makmur",
    "latitude": "-7.4035157",
    "longitude": "111.3620070",
    "icon_url": "https://sipsn.menlhk.go.id/sipsn/assets/img/ylw-circle.png",
    "facility_type": "tps3r",
    "id": "6994",
    "address": "TPS3R NGUDI MAKMUR (TPS 3R / UPS) Desa Gemarang Kecamatan Kedunggalar Kab. Ngawi, Jawa Timur"
  },
  {
    "name": "TPS 3R DESA PUNTEN",
    "latitude": "-6.2071100",
    "longitude": "106.7995600",
    "icon_url": "https://sipsn.menlhk.go.id/sipsn/assets/img/ylw-circle.png",
    "facility_type": "tps3r",
    "id": "6985",
    "address": "TPS 3R DESA PUNTEN (TPS 3R / UPS) DESA PUNTEN Kota Batu, Jawa Timur"
  },
  {
    "name": "BARAT ASRI",
    "latitude": "-7.5580601",
    "longitude": "111.4518999",
    "icon_url": "https://sipsn.menlhk.go.id/sipsn/assets/img/ylw-circle.png",
    "facility_type": "tps3r",
    "id": "6950",
    "address": "BARAT ASRI (TPS 3R / UPS) Kel. Mangge Kec. Barat Kab. Magetan, Jawa Timur"
  },
  {
    "name": "TPS 3R Purwodadi",
    "latitude": "-8.4230000",
    "longitude": "114.1090000",
    "icon_url": "https://sipsn.menlhk.go.id/sipsn/assets/img/ylw-circle.png",
    "facility_type": "tps3r",
    "id": "6770",
    "address": "TPS 3R PURWODADI (TPS 3R / UPS) Desa Purwodadi Kab. Banyuwangi, Jawa Timur"
  },
  {
    "name": "TPS 3R Cluring",
    "latitude": "-8.4210000",
    "longitude": "114.2120000",
    "icon_url": "https://sipsn.menlhk.go.id/sipsn/assets/img/ylw-circle.png",
    "facility_type": "tps3r",
    "id": "6766",
    "address": "TPS 3R CLURING (TPS 3R / UPS) Desa Cluring Kab. Banyuwangi, Jawa Timur"
  },
  {
    "name": "TPS 3R Glagah",
    "latitude": "-8.2179000",
    "longitude": "114.3120000",
    "icon_url": "https://sipsn.menlhk.go.id/sipsn/assets/img/ylw-circle.png",
    "facility_type": "tps3r",
    "id": "6765",
    "address": "TPS 3R GLAGAH (TPS 3R / UPS) Desa Glagah Kab. Banyuwangi, Jawa Timur"
  },
  {
    "name": "TPS 3R Purwoharjo",
    "latitude": "-8.4820000",
    "longitude": "114.2390000",
    "icon_url": "https://sipsn.menlhk.go.id/sipsn/assets/img/ylw-circle.png",
    "facility_type": "tps3r",
    "id": "6764",
    "address": "TPS 3R PURWOHARJO (TPS 3R / UPS) Desa Purwoharjo Kab. Banyuwangi, Jawa Timur"
  },
  {
    "name": "TPS 3R Bajulmati",
    "latitude": "-7.9390000",
    "longitude": "114.3880000",
    "icon_url": "https://sipsn.menlhk.go.id/sipsn/assets/img/ylw-circle.png",
    "facility_type": "tps3r",
    "id": "6763",
    "address": "TPS 3R BAJULMATI (TPS 3R / UPS) Desa Bajulmati Kab. Banyuwangi, Jawa Timur"
  },
  {
    "name": "TPS 3R Pakis",
    "latitude": "-8.2440000",
    "longitude": "114.3550000",
    "icon_url": "https://sipsn.menlhk.go.id/sipsn/assets/img/ylw-circle.png",
    "facility_type": "tps3r",
    "id": "6762",
    "address": "TPS 3R PAKIS (TPS 3R / UPS) Kelurahan Pakis Kab. Banyuwangi, Jawa Timur"
  },
  {
    "name": "TPS 3R Kebondalem",
    "latitude": "-8.4650000",
    "longitude": "114.1490000",
    "icon_url": "https://sipsn.menlhk.go.id/sipsn/assets/img/ylw-circle.png",
    "facility_type": "tps3r",
    "id": "6761",
    "address": "TPS 3R KEBONDALEM (TPS 3R / UPS) Desa Kebondalem Kab. Banyuwangi, Jawa Timur"
  },
  {
    "name": "TPS 3R Tegalsari",
    "latitude": "-8.4200000",
    "longitude": "114.1450000",
    "icon_url": "https://sipsn.menlhk.go.id/sipsn/assets/img/ylw-circle.png",
    "facility_type": "tps3r",
    "id": "6759",
    "address": "TPS 3R TEGALSARI (TPS 3R / UPS) Desa Tegalsari Kab. Banyuwangi, Jawa Timur"
  },
  {
    "name": "TPS 3R Badean",
    "latitude": "-8.2970000",
    "longitude": "114.3550000",
    "icon_url": "https://sipsn.menlhk.go.id/sipsn/assets/img/ylw-circle.png",
    "facility_type": "tps3r",
    "id": "6758",
    "address": "TPS 3R BADEAN (TPS 3R / UPS) Desa Badean Kab. Banyuwangi, Jawa Timur"
  },
  {
    "name": "TPS 3R Kabat",
    "latitude": "-8.2690000",
    "longitude": "114.3140000",
    "icon_url": "https://sipsn.menlhk.go.id/sipsn/assets/img/ylw-circle.png",
    "facility_type": "tps3r",
    "id": "6757",
    "address": "TPS 3R KABAT (TPS 3R / UPS) Desa Kabat Kab. Banyuwangi, Jawa Timur"
  },
  {
    "name": "TPS 3R Balak",
    "latitude": "-8.2630000",
    "longitude": "114.2380000",
    "icon_url": "https://sipsn.menlhk.go.id/sipsn/assets/img/ylw-circle.png",
    "facility_type": "tps3r",
    "id": "6756",
    "address": "TPS 3R BALAK (TPS 3R / UPS) Desa Balak Kab. Banyuwangi, Jawa Timur"
  },
  {
    "name": "TPS 3R Mangir",
    "latitude": "-8.3420000",
    "longitude": "114.2860000",
    "icon_url": "https://sipsn.menlhk.go.id/sipsn/assets/img/ylw-circle.png",
    "facility_type": "tps3r",
    "id": "6755",
    "address": "TPS 3R MANGIR (TPS 3R / UPS) Desa Manggir Kab. Banyuwangi, Jawa Timur"
  },
  {
    "name": "TPS 3R Sumberejo",
    "latitude": "-8.2390579",
    "longitude": "114.3451416",
    "icon_url": "https://sipsn.menlhk.go.id/sipsn/assets/img/ylw-circle.png",
    "facility_type": "tps3r",
    "id": "6754",
    "address": "TPS 3R SUMBEREJO (TPS 3R / UPS) Sumberejo Kab. Banyuwangi, Jawa Timur"
  },
  {
    "name": "TPST SEKAR PUTIH",
    "latitude": "-7.8721077",
    "longitude": "111.4897540",
    "icon_url": "https://sipsn.menlhk.go.id/sipsn/assets/img/ylw-circle.png",
    "facility_type": "tps3r",
    "id": "6682",
    "address": "TPST SEKAR PUTIH (TPST (diluar TPA)) TONATAN Kab. Ponorogo, Jawa Timur"
  },
  {
    "name": "TPST 3R  GONTOR",
    "latitude": "-7.9463952",
    "longitude": "111.4767171",
    "icon_url": "https://sipsn.menlhk.go.id/sipsn/assets/img/ylw-circle.png",
    "facility_type": "tps3r",
    "id": "6681",
    "address": "TPST 3R  GONTOR (TPST (diluar TPA)) GONTOR Kab. Ponorogo, Jawa Timur"
  },
  {
    "name": "TPS 3R KUTUWETAN",
    "latitude": "-7.9488846",
    "longitude": "111.4899760",
    "icon_url": "https://sipsn.menlhk.go.id/sipsn/assets/img/ylw-circle.png",
    "facility_type": "tps3r",
    "id": "6680",
    "address": "TPS 3R KUTUWETAN (TPS 3R / UPS) DUKUH KRAJAN TIMUR Kab. Ponorogo, Jawa Timur"
  },
  {
    "name": "TPS 3R SAHANG",
    "latitude": "-7.8021935",
    "longitude": "111.6000303",
    "icon_url": "https://sipsn.menlhk.go.id/sipsn/assets/img/ylw-circle.png",
    "facility_type": "tps3r",
    "id": "6679",
    "address": "TPS 3R SAHANG (TPS 3R / UPS) SAHANG Kab. Ponorogo, Jawa Timur"
  },
  {
    "name": "TPS 3R MURIA BERSERI",
    "latitude": "-7.4601930",
    "longitude": "112.4553490",
    "icon_url": "https://sipsn.menlhk.go.id/sipsn/assets/img/ylw-circle.png",
    "facility_type": "tps3r",
    "id": "6511",
    "address": "TPS 3R MURIA BERSERI (TPS 3R / UPS) Jl. Muria Raya Perumnas Kedundung Kota Mojokerto, Jawa Timur"
  },
  {
    "name": "TPS 3R PULOREJO \\\"CAHAYA BERSERI\\\"",
    "latitude": "-7.4684850",
    "longitude": "112.4151620",
    "icon_url": "https://sipsn.menlhk.go.id/sipsn/assets/img/ylw-circle.png",
    "facility_type": "tps3r",
    "id": "6510",
    "address": "TPS 3R PULOREJO \"CAHAYA BERSERI\" (TPS 3R / UPS) Jl. Raya Pulorejo RT 04 RW 01 Kota Mojokerto, Jawa Timur"
  },
  {
    "name": "TPS 3R MAGERSARI BERSERI",
    "latitude": "-7.4598350",
    "longitude": "112.4429590",
    "icon_url": "https://sipsn.menlhk.go.id/sipsn/assets/img/ylw-circle.png",
    "facility_type": "tps3r",
    "id": "6509",
    "address": "TPS 3R MAGERSARI BERSERI (TPS 3R / UPS) Jl. Ronggolawe Magersari Kota Mojokerto, Jawa Timur"
  },
  {
    "name": "TPS 3R Mojoduwur Mojowarno",
    "latitude": "-7.6334970",
    "longitude": "112.3178500",
    "icon_url": "https://sipsn.menlhk.go.id/sipsn/assets/img/ylw-circle.png",
    "facility_type": "tps3r",
    "id": "6508",
    "address": "TPS 3R MOJODUWUR MOJOWARNO (TPS 3R / UPS) Mojoduwur Kab. Jombang, Jawa Timur"
  },
  {
    "name": "TPS3R - Rejoagung Berseri",
    "latitude": "-7.4541230",
    "longitude": "112.2228730",
    "icon_url": "https://sipsn.menlhk.go.id/sipsn/assets/img/ylw-circle.png",
    "facility_type": "tps3r",
    "id": "6494",
    "address": "TPS3R - REJOAGUNG BERSERI (TPS 3R / UPS) Desa Rejoagung Kab. Jombang, Jawa Timur"
  },
  {
    "name": "TPS 3R Dasawarsa Desa Waru Barat",
    "latitude": "-6.9449650",
    "longitude": "113.5602420",
    "icon_url": "https://sipsn.menlhk.go.id/sipsn/assets/img/ylw-circle.png",
    "facility_type": "tps3r",
    "id": "6310",
    "address": "TPS 3R DASAWARSA DESA WARU BARAT (TPS 3R / UPS) Jl. Desa Waru Barat Kab. Pamekasan, Jawa Timur"
  },
  {
    "name": "TPS 3R Rampak Naonk Desa Plakpak",
    "latitude": "-7.0973750",
    "longitude": "113.4807190",
    "icon_url": "https://sipsn.menlhk.go.id/sipsn/assets/img/ylw-circle.png",
    "facility_type": "tps3r",
    "id": "6309",
    "address": "TPS 3R RAMPAK NAONK DESA PLAKPAK (TPS 3R / UPS) Dsn. Bunut Kab. Pamekasan, Jawa Timur"
  },
  {
    "name": "PLAOSAN BERSERI",
    "latitude": "-7.6808371",
    "longitude": "111.2544291",
    "icon_url": "https://sipsn.menlhk.go.id/sipsn/assets/img/ylw-circle.png",
    "facility_type": "tps3r",
    "id": "6283",
    "address": "PLAOSAN BERSERI (TPS 3R / UPS) Kel. Plaosan Kec. Plaosan Kab. Magetan, Jawa Timur"
  },
  {
    "name": "TPS 3R BLABAK",
    "latitude": "-7.8615887",
    "longitude": "112.0352515",
    "icon_url": "https://sipsn.menlhk.go.id/sipsn/assets/img/ylw-circle.png",
    "facility_type": "tps3r",
    "id": "6280",
    "address": "TPS 3R BLABAK (TPS 3R / UPS) JL.RAYA JEGLES GANG 2 NO.18 KEC.PESANTREN KOTA KEDIRI Kota Kediri, Jawa Timur"
  },
  {
    "name": "PDU Jambangan",
    "latitude": "-7.3175885",
    "longitude": "112.7145367",
    "icon_url": "https://sipsn.menlhk.go.id/sipsn/assets/img/ylw-circle.png",
    "facility_type": "tps3r",
    "id": "6205",
    "address": "PDU JAMBANGAN (PDU) Jl. Jambangan Kebonagung Kota Surabaya, Jawa Timur"
  },
  {
    "name": "Superdepo Sutorejo",
    "latitude": "-7.2581941",
    "longitude": "112.7924776",
    "icon_url": "https://sipsn.menlhk.go.id/sipsn/assets/img/ylw-circle.png",
    "facility_type": "tps3r",
    "id": "6204",
    "address": "SUPERDEPO SUTOREJO (PDU) Jl. Kalisari Kota Surabaya, Jawa Timur"
  },
  {
    "name": "TPS3R Warugunung",
    "latitude": "-7.3331050",
    "longitude": "112.6612040",
    "icon_url": "https://sipsn.menlhk.go.id/sipsn/assets/img/ylw-circle.png",
    "facility_type": "tps3r",
    "id": "6203",
    "address": "TPS3R WARUGUNUNG (TPS 3R / UPS) Warugunung Kota Surabaya, Jawa Timur"
  },
  {
    "name": "TPS3R Karang Pilang",
    "latitude": "-7.3419517",
    "longitude": "112.6748833",
    "icon_url": "https://sipsn.menlhk.go.id/sipsn/assets/img/ylw-circle.png",
    "facility_type": "tps3r",
    "id": "6202",
    "address": "TPS3R KARANG PILANG (TPS 3R / UPS) Karang Pilang Kota Surabaya, Jawa Timur"
  },
  {
    "name": "TPS3R Gunung Anyar",
    "latitude": "-7.3316970",
    "longitude": "112.8147770",
    "icon_url": "https://sipsn.menlhk.go.id/sipsn/assets/img/ylw-circle.png",
    "facility_type": "tps3r",
    "id": "6201",
    "address": "TPS3R GUNUNG ANYAR (TPS 3R / UPS) Gunung Anyar Tambak Kota Surabaya, Jawa Timur"
  },
  {
    "name": "TPS3R Kedung Cowek",
    "latitude": "-7.2165838",
    "longitude": "112.7766280",
    "icon_url": "https://sipsn.menlhk.go.id/sipsn/assets/img/ylw-circle.png",
    "facility_type": "tps3r",
    "id": "6200",
    "address": "TPS3R KEDUNG COWEK (TPS 3R / UPS) Kedung Cowek Kota Surabaya, Jawa Timur"
  },
  {
    "name": "TPS3R Tenggilis",
    "latitude": "-7.3186020",
    "longitude": "112.7511600",
    "icon_url": "https://sipsn.menlhk.go.id/sipsn/assets/img/ylw-circle.png",
    "facility_type": "tps3r",
    "id": "6199",
    "address": "TPS3R TENGGILIS (TPS 3R / UPS) Jl. Tenggilis Tengah Kota Surabaya, Jawa Timur"
  },
  {
    "name": "TPS3R Tambak Osowilangon",
    "latitude": "-7.2182400",
    "longitude": "112.6578900",
    "icon_url": "https://sipsn.menlhk.go.id/sipsn/assets/img/ylw-circle.png",
    "facility_type": "tps3r",
    "id": "6198",
    "address": "TPS3R TAMBAK OSOWILANGON (TPS 3R / UPS) Jl. Tambak Osowilangon Kota Surabaya, Jawa Timur"
  },
  {
    "name": "TPS3R Bratang",
    "latitude": "-7.2957900",
    "longitude": "112.7614600",
    "icon_url": "https://sipsn.menlhk.go.id/sipsn/assets/img/ylw-circle.png",
    "facility_type": "tps3r",
    "id": "6197",
    "address": "TPS3R BRATANG (TPS 3R / UPS) Jl. Manyar Kota Surabaya, Jawa Timur"
  },
  {
    "name": "TPS 3R PURUTREJO",
    "latitude": "-7.6572730",
    "longitude": "112.9001160",
    "icon_url": "https://sipsn.menlhk.go.id/sipsn/assets/img/ylw-circle.png",
    "facility_type": "tps3r",
    "id": "6087",
    "address": "TPS 3R PURUTREJO (TPS 3R / UPS) Jl. Margoutomo Kota Pasuruan, Jawa Timur"
  },
  {
    "name": "TPS 3R BUKIR",
    "latitude": "-7.6529270",
    "longitude": "112.8855620",
    "icon_url": "https://sipsn.menlhk.go.id/sipsn/assets/img/ylw-circle.png",
    "facility_type": "tps3r",
    "id": "6086",
    "address": "TPS 3R BUKIR (TPS 3R / UPS) Jl. Gatot Subroto Kota Pasuruan, Jawa Timur"
  },
  {
    "name": "TPS 3R RANDUSARI",
    "latitude": "-7.6375660",
    "longitude": "112.8824970",
    "icon_url": "https://sipsn.menlhk.go.id/sipsn/assets/img/ylw-circle.png",
    "facility_type": "tps3r",
    "id": "6085",
    "address": "TPS 3R RANDUSARI (TPS 3R / UPS) Jl. Gatot Subroto Kota Pasuruan, Jawa Timur"
  },
  {
    "name": "TPS 3R GADINGREJO",
    "latitude": "-7.6348890",
    "longitude": "112.9029030",
    "icon_url": "https://sipsn.menlhk.go.id/sipsn/assets/img/ylw-circle.png",
    "facility_type": "tps3r",
    "id": "6084",
    "address": "TPS 3R GADINGREJO (TPS 3R / UPS) Jl. Irian Jaya No.93, Gadingrejo, Kec. Gadingrejo, Kota Pasuruan, Jawa Timur 67131 Kota Pasuruan, Jawa Timur"
  },
  {
    "name": "TPS 3R SEBANI",
    "latitude": "-7.6456250",
    "longitude": "112.8897560",
    "icon_url": "https://sipsn.menlhk.go.id/sipsn/assets/img/ylw-circle.png",
    "facility_type": "tps3r",
    "id": "6083",
    "address": "TPS 3R SEBANI (TPS 3R / UPS) Jl. Tengku Umar RT. 05 RW. 02 Kota Pasuruan, Jawa Timur"
  },
  {
    "name": "TPS 3R KARANKETUG",
    "latitude": "-7.6323390",
    "longitude": "112.8823540",
    "icon_url": "https://sipsn.menlhk.go.id/sipsn/assets/img/ylw-circle.png",
    "facility_type": "tps3r",
    "id": "6082",
    "address": "TPS 3R KARANKETUG (TPS 3R / UPS) Jl. Gatot Subroto No. 1 Kota Pasuruan, Jawa Timur"
  },
  {
    "name": "TPS 3R KRAMPYANGAN",
    "latitude": "-7.6676600",
    "longitude": "112.9096140",
    "icon_url": "https://sipsn.menlhk.go.id/sipsn/assets/img/ylw-circle.png",
    "facility_type": "tps3r",
    "id": "6081",
    "address": "TPS 3R KRAMPYANGAN (TPS 3R / UPS) Jl. K.H. Hasyim Ashari, Bakalan, Kec. Bugulkidul, Kota Pasuruan, Jawa Timur 67127 Kota Pasuruan, Jawa Timur"
  },
  {
    "name": "TPS 3R BUGUL LOR",
    "latitude": "-7.6427544",
    "longitude": "112.9184553",
    "icon_url": "https://sipsn.menlhk.go.id/sipsn/assets/img/ylw-circle.png",
    "facility_type": "tps3r",
    "id": "6079",
    "address": "TPS 3R BUGUL LOR (TPS 3R / UPS) JL.CEMARA Kota Pasuruan, Jawa Timur"
  },
  {
    "name": "TPS 3R BLANDONGAN",
    "latitude": "-7.6582188",
    "longitude": "112.9202321",
    "icon_url": "https://sipsn.menlhk.go.id/sipsn/assets/img/ylw-circle.png",
    "facility_type": "tps3r",
    "id": "6078",
    "address": "TPS 3R BLANDONGAN (TPS 3R / UPS) Jl. Mojopahit Kejobo Lor Kota Pasuruan, Jawa Timur"
  },
  {
    "name": "TPS 3R TEMBOKREJO",
    "latitude": "-7.6688510",
    "longitude": "112.9037390",
    "icon_url": "https://sipsn.menlhk.go.id/sipsn/assets/img/ylw-circle.png",
    "facility_type": "tps3r",
    "id": "6076",
    "address": "TPS 3R TEMBOKREJO (TPS 3R / UPS) Jl. Ki Hajar Dewantara Kota Pasuruan, Jawa Timur"
  },
  {
    "name": "TPS 3R KARANGANYAR",
    "latitude": "-7.6386560",
    "longitude": "112.9009530",
    "icon_url": "https://sipsn.menlhk.go.id/sipsn/assets/img/ylw-circle.png",
    "facility_type": "tps3r",
    "id": "6075",
    "address": "TPS 3R KARANGANYAR (TPS 3R / UPS) Pasuruan, Karanganyar, Kec. Gadingrejo, Kota Pasuruan, Jawa Timur 67131 Kota Pasuruan, Jawa Timur"
  },
  {
    "name": "TPST Sidorejo",
    "latitude": "-6.2071100",
    "longitude": "106.7999000",
    "icon_url": "https://sipsn.menlhk.go.id/sipsn/assets/img/ylw-circle.png",
    "facility_type": "tps3r",
    "id": "5738",
    "address": "TPST SIDOREJO (TPST (diluar TPA)) Sidorejo Kab. Sidoarjo, Jawa Timur"
  },
  {
    "name": "ANUGERAH BUMI LESTARI",
    "latitude": "-8.0912210",
    "longitude": "111.9641728",
    "icon_url": "https://sipsn.menlhk.go.id/sipsn/assets/img/ylw-circle.png",
    "facility_type": "tps3r",
    "id": "5510",
    "address": "ANUGERAH BUMI LESTARI (TPS 3R / UPS) - Kab. Tulungagung, Jawa Timur"
  },
  {
    "name": "LESTARI MULYO",
    "latitude": "-8.0399310",
    "longitude": "111.8749432",
    "icon_url": "https://sipsn.menlhk.go.id/sipsn/assets/img/ylw-circle.png",
    "facility_type": "tps3r",
    "id": "5509",
    "address": "LESTARI MULYO (TPS 3R / UPS) RT 05/ RW 05 Kab. Tulungagung, Jawa Timur"
  },
  {
    "name": "TPST TPS 3R DESA ORO-ORO OMBO",
    "latitude": "-7.8986671",
    "longitude": "112.5274893",
    "icon_url": "https://sipsn.menlhk.go.id/sipsn/assets/img/ylw-circle.png",
    "facility_type": "tps3r",
    "id": "2964",
    "address": "TPST TPS 3R DESA ORO-ORO OMBO (TPS 3R / UPS) DESA ORO-ORO OMBO Kota Batu, Jawa Timur"
  },
  {
    "name": "TPS 3R DESA PANDANREJO",
    "latitude": "-7.8671319",
    "longitude": "112.5453690",
    "icon_url": "https://sipsn.menlhk.go.id/sipsn/assets/img/ylw-circle.png",
    "facility_type": "tps3r",
    "id": "2961",
    "address": "TPS 3R DESA PANDANREJO (TPS 3R / UPS) DESA PANDANREJO Kota Batu, Jawa Timur"
  },
  {
    "name": "TPS 3R KELURAHAN TEMAS",
    "latitude": "-7.8827289",
    "longitude": "112.5394091",
    "icon_url": "https://sipsn.menlhk.go.id/sipsn/assets/img/ylw-circle.png",
    "facility_type": "tps3r",
    "id": "2960",
    "address": "TPS 3R KELURAHAN TEMAS (TPS 3R / UPS) KELURAHAN TEMAS Kota Batu, Jawa Timur"
  },
  {
    "name": "TPS 3R DADAPREJO",
    "latitude": "-7.9106240",
    "longitude": "112.5668920",
    "icon_url": "https://sipsn.menlhk.go.id/sipsn/assets/img/ylw-circle.png",
    "facility_type": "tps3r",
    "id": "2959",
    "address": "TPS 3R DADAPREJO (TPS 3R / UPS) JL. DR. SUTOMO RT 01 RW 06 Kota Batu, Jawa Timur"
  },
  {
    "name": "TPS 3R Rahayu Lestari",
    "latitude": "-8.1235429",
    "longitude": "111.7301652",
    "icon_url": "https://sipsn.menlhk.go.id/sipsn/assets/img/ylw-circle.png",
    "facility_type": "tps3r",
    "id": "2958",
    "address": "TPS 3R RAHAYU LESTARI (TPS 3R / UPS) Karanganyar Kab. Trenggalek, Jawa Timur"
  },
  {
    "name": "TPS 3R Rahayu",
    "latitude": "-8.0867720",
    "longitude": "111.6612010",
    "icon_url": "https://sipsn.menlhk.go.id/sipsn/assets/img/ylw-circle.png",
    "facility_type": "tps3r",
    "id": "2957",
    "address": "TPS 3R RAHAYU (TPS 3R / UPS) Karangan Kab. Trenggalek, Jawa Timur"
  },
  {
    "name": "TPS 3R Sawunggaling",
    "latitude": "-8.0563346",
    "longitude": "111.7167504",
    "icon_url": "https://sipsn.menlhk.go.id/sipsn/assets/img/ylw-circle.png",
    "facility_type": "tps3r",
    "id": "2956",
    "address": "TPS 3R SAWUNGGALING (TPS 3R / UPS) Sumbergedong Kab. Trenggalek, Jawa Timur"
  },
  {
    "name": "TPST KARANGAN",
    "latitude": "-8.1824112",
    "longitude": "111.6183755",
    "icon_url": "https://sipsn.menlhk.go.id/sipsn/assets/img/ylw-circle.png",
    "facility_type": "tps3r",
    "id": "2955",
    "address": "TPST KARANGAN (TPST (diluar TPA)) KAB. TRENGGALEK Kab. Trenggalek, Jawa Timur"
  },
  {
    "name": "TPST REJOWINANGUN",
    "latitude": "-8.1824112",
    "longitude": "111.6183755",
    "icon_url": "https://sipsn.menlhk.go.id/sipsn/assets/img/ylw-circle.png",
    "facility_type": "tps3r",
    "id": "2954",
    "address": "TPST REJOWINANGUN (TPST (diluar TPA)) KAB. TRENGGALEK Kab. Trenggalek, Jawa Timur"
  },
  {
    "name": "TPST PASAR BASAH",
    "latitude": "-8.1824112",
    "longitude": "111.6183755",
    "icon_url": "https://sipsn.menlhk.go.id/sipsn/assets/img/ylw-circle.png",
    "facility_type": "tps3r",
    "id": "2953",
    "address": "TPST PASAR BASAH (TPST (diluar TPA)) KAB. TRENGGALEK Kab. Trenggalek, Jawa Timur"
  },
  {
    "name": "TPST MBAGONG",
    "latitude": "-8.1824112",
    "longitude": "111.6183755",
    "icon_url": "https://sipsn.menlhk.go.id/sipsn/assets/img/ylw-circle.png",
    "facility_type": "tps3r",
    "id": "2952",
    "address": "TPST MBAGONG (TPST (diluar TPA)) KAB. TRENGGALEK Kab. Trenggalek, Jawa Timur"
  },
  {
    "name": "TPST WATULIMO",
    "latitude": "-8.1824112",
    "longitude": "111.6183755",
    "icon_url": "https://sipsn.menlhk.go.id/sipsn/assets/img/ylw-circle.png",
    "facility_type": "tps3r",
    "id": "2951",
    "address": "TPST WATULIMO (TPST (diluar TPA)) KAB. TRENGGALEK Kab. Trenggalek, Jawa Timur"
  },
  {
    "name": "TPST PASIR PUTIH",
    "latitude": "-8.1824112",
    "longitude": "111.6183755",
    "icon_url": "https://sipsn.menlhk.go.id/sipsn/assets/img/ylw-circle.png",
    "facility_type": "tps3r",
    "id": "2950",
    "address": "TPST PASIR PUTIH (TPST (diluar TPA)) KAB. TRENGGALEK Kab. Trenggalek, Jawa Timur"
  },
  {
    "name": "TPST TASIKMADU",
    "latitude": "-8.1824112",
    "longitude": "111.6183755",
    "icon_url": "https://sipsn.menlhk.go.id/sipsn/assets/img/ylw-circle.png",
    "facility_type": "tps3r",
    "id": "2949",
    "address": "TPST TASIKMADU (TPST (diluar TPA)) KAB. TRENGGALEK Kab. Trenggalek, Jawa Timur"
  },
  {
    "name": "TPST SUMBERGEDONG",
    "latitude": "-8.1824112",
    "longitude": "111.6183755",
    "icon_url": "https://sipsn.menlhk.go.id/sipsn/assets/img/ylw-circle.png",
    "facility_type": "tps3r",
    "id": "2948",
    "address": "TPST SUMBERGEDONG (TPST (diluar TPA)) KAB. TRENGGALEK Kab. Trenggalek, Jawa Timur"
  },
  {
    "name": "TPST TPSST GUNUNGCILIK",
    "latitude": "-8.1824112",
    "longitude": "111.6183755",
    "icon_url": "https://sipsn.menlhk.go.id/sipsn/assets/img/ylw-circle.png",
    "facility_type": "tps3r",
    "id": "2947",
    "address": "TPST TPSST GUNUNGCILIK (TPST (diluar TPA)) KAB. TRENGGALEK Kab. Trenggalek, Jawa Timur"
  },
  {
    "name": "TPST SMPN 6",
    "latitude": "-8.1824112",
    "longitude": "111.6183755",
    "icon_url": "https://sipsn.menlhk.go.id/sipsn/assets/img/ylw-circle.png",
    "facility_type": "tps3r",
    "id": "2946",
    "address": "TPST SMPN 6 (TPST (diluar TPA)) KAB. TRENGGALEK Kab. Trenggalek, Jawa Timur"
  },
  {
    "name": "TPST Kedungkembar",
    "latitude": "-7.4636646",
    "longitude": "112.5990066",
    "icon_url": "https://sipsn.menlhk.go.id/sipsn/assets/img/ylw-circle.png",
    "facility_type": "tps3r",
    "id": "2945",
    "address": "TPST KEDUNGKEMBAR (TPST (diluar TPA)) Kedungkembar Kab. Sidoarjo, Jawa Timur"
  },
  {
    "name": "TPST Durungbedug",
    "latitude": "-7.4635329",
    "longitude": "112.6720092",
    "icon_url": "https://sipsn.menlhk.go.id/sipsn/assets/img/ylw-circle.png",
    "facility_type": "tps3r",
    "id": "2944",
    "address": "TPST DURUNGBEDUG (TPST (diluar TPA)) Durungbedug Kab. Sidoarjo, Jawa Timur"
  },
  {
    "name": "TPST Sadang",
    "latitude": "-7.3772490",
    "longitude": "112.6809479",
    "icon_url": "https://sipsn.menlhk.go.id/sipsn/assets/img/ylw-circle.png",
    "facility_type": "tps3r",
    "id": "2942",
    "address": "TPST SADANG (TPST (diluar TPA)) Sadang Kab. Sidoarjo, Jawa Timur"
  },
  {
    "name": "TPST Gedangan",
    "latitude": "-7.3933814",
    "longitude": "112.7330892",
    "icon_url": "https://sipsn.menlhk.go.id/sipsn/assets/img/ylw-circle.png",
    "facility_type": "tps3r",
    "id": "2940",
    "address": "TPST GEDANGAN (TPST (diluar TPA)) Gedangan Kab. Sidoarjo, Jawa Timur"
  },
  {
    "name": "TPST Tebel Lestari",
    "latitude": "-7.4095856",
    "longitude": "112.7270188",
    "icon_url": "https://sipsn.menlhk.go.id/sipsn/assets/img/ylw-circle.png",
    "facility_type": "tps3r",
    "id": "2934",
    "address": "TPST TEBEL LESTARI (TPST (diluar TPA)) belakang maspon ll Kab. Sidoarjo, Jawa Timur"
  },
  {
    "name": "TPST Sidokerto",
    "latitude": "-7.4309971",
    "longitude": "112.7137227",
    "icon_url": "https://sipsn.menlhk.go.id/sipsn/assets/img/ylw-circle.png",
    "facility_type": "tps3r",
    "id": "2933",
    "address": "TPST SIDOKERTO (TPST (diluar TPA)) Sidokerto Kab. Sidoarjo, Jawa Timur"
  },